{
"type": "FeatureCollection",
"crs": { "type": "name", "properties": { "name": "urn:ogc:def:crs:EPSG::3857" } },
"features": [
{ "type": "Feature", "properties": { "FACILITY_S": "Decommissioned", "NAME": "Sacramento Administration", "TYPE": "ADM", "UNIT": "CDF", "COUNTY": "Sacramento", "CITY": "Sacramento", "LAT": 38.57575, "LON": -121.497602 }, "geometry": { "type": "Point", "coordinates": [ -13525052.6534, 4661083.039099998772144, 0.0 ] } },
{ "type": "Feature", "properties": { "FACILITY_S": "Active", "NAME": "Cameron Park Fire Departemnt FS Station 89", "TYPE": "FSA", "UNIT": "AEU", "COUNTY": "El Dorado", "CITY": "Cameron Park", "LAT": 38.66034991, "LON": -120.97725822 }, "geometry": { "type": "Point", "coordinates": [ -13467128.2404, 4673136.461900003254414, 0.0 ] } },
{ "type": "Feature", "properties": { "FACILITY_S": "Active", "NAME": "Cameron Park Fire Department FS Station 88", "TYPE": "FSA", "UNIT": "AEU", "COUNTY": "El Dorado", "CITY": "Cameron Park", "LAT": 38.68901101, "LON": -120.99035692 }, "geometry": { "type": "Point", "coordinates": [ -13468586.3818, 4677223.193599998950958, 0.0 ] } },
{ "type": "Feature", "properties": { "FACILITY_S": "Active", "NAME": "Pine Hill COM/LO", "TYPE": "COM/LO", "UNIT": "AEU", "COUNTY": "El Dorado", "CITY": "Rescue", "LAT": 38.7196254, "LON": -120.99021933 }, "geometry": { "type": "Point", "coordinates": [ -13468571.066599998623133, 4681590.2516999989748, 0.0 ] } },
{ "type": "Feature", "properties": { "FACILITY_S": "Active", "NAME": "Dew Drop FS", "TYPE": "FSB", "UNIT": "AEU", "COUNTY": "Amador", "CITY": "Pioneer", "LAT": 38.51549923, "LON": -120.48052918 }, "geometry": { "type": "Point", "coordinates": [ -13411832.6067, 4652507.442500002682209, 0.0 ] } },
{ "type": "Feature", "properties": { "FACILITY_S": "Active", "NAME": "Pine Grove YCC", "TYPE": "YCC", "UNIT": "AEU", "COUNTY": "Amador", "CITY": "Pine Grove", "LAT": 38.41155331, "LON": -120.63959198000001 }, "geometry": { "type": "Point", "coordinates": [ -13429539.397599998861551, 4637729.473600000143051, 0.0 ] } },
{ "type": "Feature", "properties": { "FACILITY_S": "Active", "NAME": "Mount Zion LO", "TYPE": "LO", "UNIT": "AEU", "COUNTY": "Amador", "CITY": "Pine Grove", "LAT": 38.38983399, "LON": -120.65229719 }, "geometry": { "type": "Point", "coordinates": [ -13430953.7349, 4634644.32940000295639, 0.0 ] } },
{ "type": "Feature", "properties": { "FACILITY_S": "Active", "NAME": "Pine Grove FS", "TYPE": "FSB", "UNIT": "AEU", "COUNTY": "Amador", "CITY": "Pine Grove", "LAT": 38.41457938, "LON": -120.66289693 }, "geometry": { "type": "Point", "coordinates": [ -13432133.693799998611212, 4638159.3882, 0.0 ] } },
{ "type": "Feature", "properties": { "FACILITY_S": "Active", "NAME": "Sutter Hill FS", "TYPE": "FSB", "UNIT": "AEU", "COUNTY": "Amador", "CITY": "Sutter Creek", "LAT": 38.37721239, "LON": -120.80153551 }, "geometry": { "type": "Point", "coordinates": [ -13447566.8713, 4632851.905199997127056, 0.0 ] } },
{ "type": "Feature", "properties": { "FACILITY_S": "Active", "NAME": "River Pines FS", "TYPE": "FSB", "UNIT": "AEU", "COUNTY": "Amador", "CITY": "River Pines", "LAT": 38.54622518, "LON": -120.73839939 }, "geometry": { "type": "Point", "coordinates": [ -13440538.5915, 4656879.82599999755621, 0.0 ] } },
{ "type": "Feature", "properties": { "FACILITY_S": "Active", "NAME": "Camino FS", "TYPE": "FSB", "UNIT": "AEU", "COUNTY": "El Dorado", "CITY": "Camino", "LAT": 38.74468911, "LON": -120.6680417 }, "geometry": { "type": "Point", "coordinates": [ -13432706.4115, 4685166.916900001466274, 0.0 ] } },
{ "type": "Feature", "properties": { "FACILITY_S": "Active", "NAME": "Mount Danaher LO", "TYPE": "LO", "UNIT": "AEU", "COUNTY": "El Dorado", "CITY": "Camino", "LAT": 38.74432622, "LON": -120.66780378 }, "geometry": { "type": "Point", "coordinates": [ -13432679.926, 4685115.122299998998642, 0.0 ] } },
{ "type": "Feature", "properties": { "FACILITY_S": "Active", "NAME": "Amador-El Dorado UH", "TYPE": "HQ", "UNIT": "AEU", "COUNTY": "El Dorado", "CITY": "Camino", "LAT": 38.74429013, "LON": -120.6671354 }, "geometry": { "type": "Point", "coordinates": [ -13432605.5222, 4685109.971100002527237, 0.0 ] } },
{ "type": "Feature", "properties": { "FACILITY_S": "Active", "NAME": "Amador-El Dorado ICC", "TYPE": "ICC", "UNIT": "AEU", "COUNTY": "El Dorado", "CITY": "Camino", "LAT": 38.74427817, "LON": -120.66835056 }, "geometry": { "type": "Point", "coordinates": [ -13432740.7937, 4685108.264200001955032, 0.0 ] } },
{ "type": "Feature", "properties": { "FACILITY_S": "Active", "NAME": "El Dorado FS", "TYPE": "FSB", "UNIT": "AEU", "COUNTY": "El Dorado", "CITY": "Placerville", "LAT": 38.67987077, "LON": -120.86983076 }, "geometry": { "type": "Point", "coordinates": [ -13455169.4688, 4675919.727399997413158, 0.0 ] } },
{ "type": "Feature", "properties": { "FACILITY_S": "Active", "NAME": "Pilot Peak COM/LO", "TYPE": "COM/LO", "UNIT": "AEU", "COUNTY": "El Dorado", "CITY": "Pilot Hill", "LAT": 38.8181624, "LON": -121.02993563 }, "geometry": { "type": "Point", "coordinates": [ -13472992.2661, 4695658.99889999628067, 0.0 ] } },
{ "type": "Feature", "properties": { "FACILITY_S": "Active", "NAME": "Pilot Hill FS", "TYPE": "FSB", "UNIT": "AEU", "COUNTY": "El Dorado", "CITY": "Pilot Hill", "LAT": 38.83219356, "LON": -121.0097233 }, "geometry": { "type": "Point", "coordinates": [ -13470742.2405, 4697663.899099998176098, 0.0 ] } },
{ "type": "Feature", "properties": { "FACILITY_S": "Active", "NAME": "Garden Valley FS", "TYPE": "FSB", "UNIT": "AEU", "COUNTY": "El Dorado", "CITY": "Garden Valley", "LAT": 38.84953366, "LON": -120.86173767 }, "geometry": { "type": "Point", "coordinates": [ -13454268.552299998700619, 4700142.156700000166893, 0.0 ] } },
{ "type": "Feature", "properties": { "FACILITY_S": "Active", "NAME": "Growlersburg CC", "TYPE": "CC", "UNIT": "AEU", "COUNTY": "El Dorado", "CITY": "Georgetown", "LAT": 38.90429404, "LON": -120.87018214 }, "geometry": { "type": "Point", "coordinates": [ -13455208.5877, 4707972.509099997580051, 0.0 ] } },
{ "type": "Feature", "properties": { "FACILITY_S": "Active", "NAME": "South Lake Tahoe FS", "TYPE": "FSB", "UNIT": "AEU", "COUNTY": "El Dorado", "CITY": "South Lake Tahoe", "LAT": 38.88629467, "LON": -120.03331848000001 }, "geometry": { "type": "Point", "coordinates": [ -13362049.336, 4705398.068499997258186, 0.0 ] } },
{ "type": "Feature", "properties": { "FACILITY_S": "Active", "NAME": "Ridgeview", "TYPE": "COM", "UNIT": "AEU", "COUNTY": "El Dorado", "CITY": "El Dorado Hills", "LAT": 38.66117878, "LON": -121.09077024 }, "geometry": { "type": "Point", "coordinates": [ -13479764.343600001186132, 4673254.624099999666214, 0.0 ] } },
{ "type": "Feature", "properties": { "FACILITY_S": "Active", "NAME": "Mt Danaher", "TYPE": "COM", "UNIT": "AEU", "COUNTY": "El Dorado", "CITY": "Camino", "LAT": 38.7447372, "LON": -120.66753347 }, "geometry": { "type": "Point", "coordinates": [ -13432649.8354, 4685173.780599996447563, 0.0 ] } },
{ "type": "Feature", "properties": { "FACILITY_S": "Active", "NAME": "Ben Bolt", "TYPE": "COM", "UNIT": "AEU", "COUNTY": "El Dorado", "CITY": "Shingle Springs", "LAT": 38.58799445, "LON": -121.0250374 }, "geometry": { "type": "Point", "coordinates": [ -13472446.9946, 4662826.698700003325939, 0.0 ] } },
{ "type": "Feature", "properties": { "FACILITY_S": "Active", "NAME": "Hotchkiss", "TYPE": "COM", "UNIT": "AEU", "COUNTY": "El Dorado", "CITY": null, "LAT": 38.91348538, "LON": -120.81414066000001 }, "geometry": { "type": "Point", "coordinates": [ -13448970.0779, 4709287.399999998509884, 0.0 ] } },
{ "type": "Feature", "properties": { "FACILITY_S": "Active", "NAME": "Union Hill", "TYPE": "COM", "UNIT": "AEU", "COUNTY": "El Dorado", "CITY": "Pollock Pines", "LAT": 38.76360714, "LON": -120.55384306000001 }, "geometry": { "type": "Point", "coordinates": [ -13419993.8754, 4687867.406300000846386, 0.0 ] } },
{ "type": "Feature", "properties": { "FACILITY_S": "Active", "NAME": "Mt. Zion", "TYPE": "COM", "UNIT": "AEU", "COUNTY": "Alpine", "CITY": "Pine Grove", "LAT": 38.38934723, "LON": -120.65217288 }, "geometry": { "type": "Point", "coordinates": [ -13430939.8967, 4634575.196900002658367, 0.0 ] } },
{ "type": "Feature", "properties": { "FACILITY_S": "Active", "NAME": "Big Hill", "TYPE": "COM", "UNIT": "AEU", "COUNTY": "El Dorado", "CITY": "Pollock Pines", "LAT": 38.8426099, "LON": -120.40753931 }, "geometry": { "type": "Point", "coordinates": [ -13403707.4139, 4699152.542499996721745, 0.0 ] } },
{ "type": "Feature", "properties": { "FACILITY_S": "Active", "NAME": "Sacramento Hill", "TYPE": "COM", "UNIT": "AEU", "COUNTY": "El Dorado", "CITY": null, "LAT": 38.72480668, "LON": -120.81022466 }, "geometry": { "type": "Point", "coordinates": [ -13448534.1481, 4682329.534400001168251, 0.0 ] } },
{ "type": "Feature", "properties": { "FACILITY_S": "Active", "NAME": "Willow", "TYPE": "COM", "UNIT": "AEU", "COUNTY": "El Dorado", "CITY": null, "LAT": 38.63424688, "LON": -120.66174211000001 }, "geometry": { "type": "Point", "coordinates": [ -13432005.1422, 4669415.9054000005126, 0.0 ] } },
{ "type": "Feature", "properties": { "FACILITY_S": "Active", "NAME": "Logtown", "TYPE": "COM", "UNIT": "AEU", "COUNTY": "El Dorado", "CITY": "El Dorado", "LAT": 38.63534409, "LON": -120.85569073000001 }, "geometry": { "type": "Point", "coordinates": [ -13453595.407200001180172, 4669572.26410000026226, 0.0 ] } },
{ "type": "Feature", "properties": { "FACILITY_S": "Active", "NAME": "Ione", "TYPE": "COM", "UNIT": "AEU", "COUNTY": "Alpine", "CITY": null, "LAT": 38.3702623, "LON": -120.92607988 }, "geometry": { "type": "Point", "coordinates": [ -13461431.089, 4631865.038500003516674, 0.0 ] } },
{ "type": "Feature", "properties": { "FACILITY_S": "Active", "NAME": "Pardee", "TYPE": "COM", "UNIT": "AEU", "COUNTY": "Alpine", "CITY": "Jackson", "LAT": 38.28184801, "LON": -120.8636773 }, "geometry": { "type": "Point", "coordinates": [ -13454484.4632, 4619319.076800003647804, 0.0 ] } },
{ "type": "Feature", "properties": { "FACILITY_S": "Active", "NAME": "Alder Ridge", "TYPE": "COM", "UNIT": "AEU", "COUNTY": "El Dorado", "CITY": null, "LAT": 38.74431443, "LON": -120.34078068 }, "geometry": { "type": "Point", "coordinates": [ -13396275.874699998646975, 4685113.443199999630451, 0.0 ] } },
{ "type": "Feature", "properties": { "FACILITY_S": "Active", "NAME": "Leek Spring", "TYPE": "COM", "UNIT": "AEU", "COUNTY": "El Dorado", "CITY": null, "LAT": 38.62904459, "LON": -120.27713188 }, "geometry": { "type": "Point", "coordinates": [ -13389190.5205, 4668674.570200003683567, 0.0 ] } },
{ "type": "Feature", "properties": { "FACILITY_S": "Active", "NAME": "Bald Mountain", "TYPE": "COM", "UNIT": "AEU", "COUNTY": "El Dorado", "CITY": "Georgetown", "LAT": 38.90386997, "LON": -120.70487974 }, "geometry": { "type": "Point", "coordinates": [ -13436807.2061, 4707911.848899997770786, 0.0 ] } },
{ "type": "Feature", "properties": { "FACILITY_S": "Active", "NAME": "Scouts Peak", "TYPE": "COM", "UNIT": "AEU", "COUNTY": "El Dorado", "CITY": null, "LAT": 38.802451, "LON": -120.04575921 }, "geometry": { "type": "Point", "coordinates": [ -13363434.2305, 4693414.491599999368191, 0.0 ] } },
{ "type": "Feature", "properties": { "FACILITY_S": "Active", "NAME": "Mt. Reba", "TYPE": "COM", "UNIT": "AEU", "COUNTY": "Alpine", "CITY": null, "LAT": 38.4932506, "LON": -120.04552858 }, "geometry": { "type": "Point", "coordinates": [ -13363408.5526, 4649342.57320000231266, 0.0 ] } },
{ "type": "Feature", "properties": { "FACILITY_S": "Active", "NAME": "Hawkins", "TYPE": "COM", "UNIT": "AEU", "COUNTY": "Alpine", "CITY": null, "LAT": 38.73863202, "LON": -119.87249567000001 }, "geometry": { "type": "Point", "coordinates": [ -13344146.6175, 4684302.44650000333786, 0.0 ] } },
{ "type": "Feature", "properties": { "FACILITY_S": "Active", "NAME": "East Peak", "TYPE": "COM", "UNIT": "XTB", "COUNTY": "Douglas", "CITY": null, "LAT": 38.94226336, "LON": -119.9072875 }, "geometry": { "type": "Point", "coordinates": [ -13348019.6303, 4713405.414800003170967, 0.0 ] } },
{ "type": "Feature", "properties": { "FACILITY_S": "Active", "NAME": "CNRA HQ", "TYPE": "ADM", "UNIT": "CDF", "COUNTY": "Sacramento", "CITY": "Sacramento", "LAT": 38.56664325, "LON": -121.4938277 }, "geometry": { "type": "Point", "coordinates": [ -13525258.328, 4660995.057700000703335, 0.0 ] } },
{ "type": "Feature", "properties": { "FACILITY_S": "Active", "NAME": "McClellan Reload Base", "TYPE": "AAB", "UNIT": "AEU", "COUNTY": "Sacramento", "CITY": "McClellan", "LAT": 38.66857412, "LON": -121.3980143 }, "geometry": { "type": "Point", "coordinates": [ -13513966.600499998778105, 4674308.964000001549721, 0.0 ] } },
{ "type": "Feature", "properties": { "FACILITY_S": "Active", "NAME": "State Fire Marshal DSB", "TYPE": "SFM", "UNIT": "CDF", "COUNTY": "Sacramento", "CITY": "Sacramento", "LAT": 38.60816429, "LON": -121.43583976 }, "geometry": { "type": "Point", "coordinates": [ -13518177.3113, 4665699.603299997746944, 0.0 ] } },
{ "type": "Feature", "properties": { "FACILITY_S": "Decommissioned", "NAME": "State Fire Marshal PL", "TYPE": "SFM", "UNIT": "CDF", "COUNTY": "Sacramento", "CITY": "Sacramento", "LAT": 38.60603845, "LON": -121.43472585000001 }, "geometry": { "type": "Point", "coordinates": [ -13518051.8464, 4665396.043999999761581, 0.0 ] } },
{ "type": "Feature", "properties": { "FACILITY_S": "Decommissioned", "NAME": "Buena Vista FS 181", "TYPE": "FSA", "UNIT": "AEU", "COUNTY": "Amador", "CITY": "Ione", "LAT": 38.27766533, "LON": -120.91185068 }, "geometry": { "type": "Point", "coordinates": [ -13459845.6489, 4618725.211099997162819, 0.0 ] } },
{ "type": "Feature", "properties": { "FACILITY_S": "Active", "NAME": "Tahoe Fire Center", "TYPE": "FCCCC", "UNIT": "AEU", "COUNTY": "El Dorado", "CITY": "South Lake Tahoe", "LAT": 38.856203, "LON": -120.011914 }, "geometry": { "type": "Point", "coordinates": [ -13359693.529199998825788, 4701095.027699999511242, 0.0 ] } },
{ "type": "Feature", "properties": { "FACILITY_S": "Active", "NAME": "Placerville Fire Center", "TYPE": "FCFFC", "UNIT": "AEU", "COUNTY": "El Dorado", "CITY": "Placerville", "LAT": 38.72681, "LON": -120.828015 }, "geometry": { "type": "Point", "coordinates": [ -13450509.0517, 4682612.889600001275539, 0.0 ] } },
{ "type": "Feature", "properties": { "FACILITY_S": "Active", "NAME": "State Fire Marshal DSB", "TYPE": "SFM", "UNIT": "CDF", "COUNTY": "Sacramento", "CITY": "Sacramento", "LAT": 38.57515013, "LON": -121.49949802 }, "geometry": { "type": "Point", "coordinates": [ -13525262.2512, 4660996.899300001561642, 0.0 ] } },
{ "type": "Feature", "properties": { "FACILITY_S": "Active", "NAME": "Sacramento Emergency Command Center", "TYPE": "ECC", "UNIT": "CDF", "COUNTY": "Sacramento", "CITY": "Mather", "LAT": 38.57009404, "LON": -121.3049119 }, "geometry": { "type": "Point", "coordinates": [ -13503601.0232, 4660276.986199997365475, 0.0 ] } },
{ "type": "Feature", "properties": { "FACILITY_S": "Active", "NAME": "Sacramento Telecommunications", "TYPE": "ADM", "UNIT": "CDF", "COUNTY": "Sacramento", "CITY": "Sacramento", "LAT": 38.59714516, "LON": -121.45587341 }, "geometry": { "type": "Point", "coordinates": [ -13520405.9819, 4664129.259900003671646, 0.0 ] } },
{ "type": "Feature", "properties": { "FACILITY_S": "Active", "NAME": "Aviation Management Unit", "TYPE": "ADM", "UNIT": "CDF", "COUNTY": "Sacramento", "CITY": "McClellan", "LAT": 38.66648324, "LON": -121.39301349 }, "geometry": { "type": "Point", "coordinates": [ -13513408.4481, 4674010.132600001990795, 0.0 ] } },
{ "type": "Feature", "properties": { "FACILITY_S": "Active", "NAME": "CAL FIRE Training Center", "TYPE": "TC", "UNIT": "AEU", "COUNTY": "Amador", "CITY": "Ione", "LAT": 38.36501617, "LON": -120.94225053 }, "geometry": { "type": "Point", "coordinates": [ -13463229.7443, 4631119.461300000548363, 0.0 ] } },
{ "type": "Feature", "properties": { "FACILITY_S": "Active", "NAME": "541", "TYPE": "FSA", "UNIT": "BDU", "COUNTY": "San Bernardino", "CITY": "Highland", "LAT": 34.12142498, "LON": -117.21607808 }, "geometry": { "type": "Point", "coordinates": [ -13048435.4627, 4045118.772399999201298, 0.0 ] } },
{ "type": "Feature", "properties": { "FACILITY_S": "Active", "NAME": "542", "TYPE": "FSA", "UNIT": "BDU", "COUNTY": "San Bernardino", "CITY": "Highland", "LAT": 34.12093064, "LON": -117.15970517 }, "geometry": { "type": "Point", "coordinates": [ -13042160.0574, 4045052.299900002777576, 0.0 ] } },
{ "type": "Feature", "properties": { "FACILITY_S": "Active", "NAME": "543", "TYPE": "FSA", "UNIT": "BDU", "COUNTY": "San Bernardino", "CITY": "Highland", "LAT": 34.11475509, "LON": -117.24350581 }, "geometry": { "type": "Point", "coordinates": [ -13051488.7033, 4044221.920199997723103, 0.0 ] } },
{ "type": "Feature", "properties": { "FACILITY_S": "Decommissioned", "NAME": "551", "TYPE": "FSAB", "UNIT": "BDU", "COUNTY": "San Bernardino", "CITY": "Yucaipa", "LAT": 34.04645688, "LON": -117.03472056 }, "geometry": { "type": "Point", "coordinates": [ -13028246.831500001251698, 4035042.418600000441074, 0.0 ] } },
{ "type": "Feature", "properties": { "FACILITY_S": "Active", "NAME": "552", "TYPE": "FSA", "UNIT": "BDU", "COUNTY": "San Bernardino", "CITY": "Yucaipa", "LAT": 34.0340047, "LON": -117.09230785 }, "geometry": { "type": "Point", "coordinates": [ -13034657.4203, 4033369.601700000464916, 0.0 ] } },
{ "type": "Feature", "properties": { "FACILITY_S": "Active", "NAME": "553", "TYPE": "FSA", "UNIT": "BDU", "COUNTY": "San Bernardino", "CITY": "Yucaipa", "LAT": 34.01563466, "LON": -117.05716732 }, "geometry": { "type": "Point", "coordinates": [ -13030745.593899998813868, 4030902.233400002121925, 0.0 ] } },
{ "type": "Feature", "properties": { "FACILITY_S": "Active", "NAME": "Chino Hills FS", "TYPE": "FSB", "UNIT": "BDU", "COUNTY": "San Bernardino", "CITY": "Chino", "LAT": 33.99024531, "LON": -117.68817744 }, "geometry": { "type": "Point", "coordinates": [ -13100989.3309, 4027492.940200001001358, 0.0 ] } },
{ "type": "Feature", "properties": { "FACILITY_S": "Active", "NAME": "Yucaipa FS", "TYPE": "FSAB", "UNIT": "BDU", "COUNTY": "San Bernardino", "CITY": "Yucaipa", "LAT": 34.04645155, "LON": -117.03472539000001 }, "geometry": { "type": "Point", "coordinates": [ -13028247.3688, 4035041.702600002288818, 0.0 ] } },
{ "type": "Feature", "properties": { "FACILITY_S": "Active", "NAME": "Yucca Valley FS", "TYPE": "FSB", "UNIT": "BDU", "COUNTY": "San Bernardino", "CITY": "Yucca Valley", "LAT": 34.12360574, "LON": -116.40953165000001 }, "geometry": { "type": "Point", "coordinates": [ -12958651.1085, 4045412.025700002908707, 0.0 ] } },
{ "type": "Feature", "properties": { "FACILITY_S": "Active", "NAME": "Devore FS", "TYPE": "FSB", "UNIT": "BDU", "COUNTY": "San Bernardino", "CITY": "San Bernardino", "LAT": 34.22132423, "LON": -117.40380988 }, "geometry": { "type": "Point", "coordinates": [ -13069333.6756, 4058559.982699997723103, 0.0 ] } },
{ "type": "Feature", "properties": { "FACILITY_S": "Active", "NAME": "Phelan FS", "TYPE": "FSB", "UNIT": "BDU", "COUNTY": "San Bernardino", "CITY": "Phelan", "LAT": 34.42539211, "LON": -117.5448638 }, "geometry": { "type": "Point", "coordinates": [ -13085035.7309, 4086066.491700001060963, 0.0 ] } },
{ "type": "Feature", "properties": { "FACILITY_S": "Active", "NAME": "Lucerne Valley FS", "TYPE": "FSB", "UNIT": "BDU", "COUNTY": "San Bernardino", "CITY": "Lucerne Valley", "LAT": 34.44387876, "LON": -116.9375824 }, "geometry": { "type": "Point", "coordinates": [ -13017433.4632, 4088561.640600003302097, 0.0 ] } },
{ "type": "Feature", "properties": { "FACILITY_S": "Active", "NAME": "Independence FS", "TYPE": "FSB", "UNIT": "BDU", "COUNTY": "Inyo", "CITY": "Independence", "LAT": 36.79940598, "LON": -118.1953344 }, "geometry": { "type": "Point", "coordinates": [ -13157445.8242, 4411184.045100003480911, 0.0 ] } },
{ "type": "Feature", "properties": { "FACILITY_S": "Active", "NAME": "Bishop FS", "TYPE": "FSB", "UNIT": "BDU", "COUNTY": "Inyo", "CITY": "Bishop", "LAT": 37.3935226, "LON": -118.54864719 }, "geometry": { "type": "Point", "coordinates": [ -13196776.4371, 4494102.36089999973774, 0.0 ] } },
{ "type": "Feature", "properties": { "FACILITY_S": "Active", "NAME": "Owens Valley CC", "TYPE": "CC", "UNIT": "BDU", "COUNTY": "Inyo", "CITY": "Bishop", "LAT": 37.39014846, "LON": -118.55200421000001 }, "geometry": { "type": "Point", "coordinates": [ -13197150.1389, 4493629.60249999910593, 0.0 ] } },
{ "type": "Feature", "properties": { "FACILITY_S": "Active", "NAME": "Pilot Rock Fire Center", "TYPE": "FCFFC", "UNIT": "BDU", "COUNTY": "San Bernardino", "CITY": "Silverwood Lake", "LAT": 34.2715119, "LON": -117.28223485 }, "geometry": { "type": "Point", "coordinates": [ -13055800.0034, 4065318.631999999284744, 0.0 ] } },
{ "type": "Feature", "properties": { "FACILITY_S": "Active", "NAME": "Prado CC", "TYPE": "CC", "UNIT": "BDU", "COUNTY": "San Bernardino", "CITY": "Chino", "LAT": 33.99049044, "LON": -117.68710907000001 }, "geometry": { "type": "Point", "coordinates": [ -13100870.400600001215935, 4027525.851099997758865, 0.0 ] } },
{ "type": "Feature", "properties": { "FACILITY_S": "Active", "NAME": "Fenner Canyon CC", "TYPE": "CC", "UNIT": "BDU", "COUNTY": "Los Angeles", "CITY": "Valyermo", "LAT": 34.38980797, "LON": -117.77521987 }, "geometry": { "type": "Point", "coordinates": [ -13110678.855, 4081265.248599998652935, 0.0 ] } },
{ "type": "Feature", "properties": { "FACILITY_S": "Active", "NAME": "Chino Institute for Women", "TYPE": "TC", "UNIT": "BDU", "COUNTY": "San Bernardino", "CITY": "Chino", "LAT": 33.94957444, "LON": -117.6332261 }, "geometry": { "type": "Point", "coordinates": [ -13094872.173700001090765, 4022033.768200002610683, 0.0 ] } },
{ "type": "Feature", "properties": { "FACILITY_S": "Active", "NAME": "Prado HB", "TYPE": "HB", "UNIT": "BDU", "COUNTY": "San Bernardino", "CITY": "Chino", "LAT": 33.98888702, "LON": -117.68721759 }, "geometry": { "type": "Point", "coordinates": [ -13100882.4809, 4027310.576899997889996, 0.0 ] } },
{ "type": "Feature", "properties": { "FACILITY_S": "Active", "NAME": "San Bernardino ECC", "TYPE": "ECC", "UNIT": "BDU", "COUNTY": "San Bernardino", "CITY": "San Bernardino", "LAT": 34.16147485, "LON": -117.28523304 }, "geometry": { "type": "Point", "coordinates": [ -13056133.759100001305342, 4050505.478299997746944, 0.0 ] } },
{ "type": "Feature", "properties": { "FACILITY_S": "Active", "NAME": "San Bernardino UH", "TYPE": "HQ", "UNIT": "BDU", "COUNTY": "San Bernardino", "CITY": "San Bernardino", "LAT": 34.15989189, "LON": -117.28522345 }, "geometry": { "type": "Point", "coordinates": [ -13056132.691399998962879, 4050292.52250000089407, 0.0 ] } },
{ "type": "Feature", "properties": { "FACILITY_S": "Active", "NAME": "Mazourka Peak COM", "TYPE": "COM", "UNIT": "BDU", "COUNTY": "Inyo", "CITY": "Independence", "LAT": 36.97577312, "LON": -118.12341479 }, "geometry": { "type": "Point", "coordinates": [ -13149439.7697, 4435731.13120000064373, 0.0 ] } },
{ "type": "Feature", "properties": { "FACILITY_S": "Active", "NAME": "Silver Peak COM", "TYPE": "COM", "UNIT": "BDU", "COUNTY": "Inyo", "CITY": "Bishop", "LAT": 37.41128996, "LON": -118.18615592 }, "geometry": { "type": "Point", "coordinates": [ -13156424.0866, 4496592.144299998879433, 0.0 ] } },
{ "type": "Feature", "properties": { "FACILITY_S": "Active", "NAME": "Strawberry Peak COM", "TYPE": "COM", "UNIT": "BDU", "COUNTY": "San Bernardino", "CITY": "Arrowhead", "LAT": 34.23210879, "LON": -117.23431392000001 }, "geometry": { "type": "Point", "coordinates": [ -13050465.4684, 4060011.973700001835823, 0.0 ] } },
{ "type": "Feature", "properties": { "FACILITY_S": "Active", "NAME": "Yucca Valley COM", "TYPE": "COM", "UNIT": "BDU", "COUNTY": "San Bernardino", "CITY": "Yucca Valley", "LAT": 34.07647764, "LON": -116.44885762 }, "geometry": { "type": "Point", "coordinates": [ -12963028.8565, 4039076.399599999189377, 0.0 ] } },
{ "type": "Feature", "properties": { "FACILITY_S": "Active", "NAME": "Apple Valley", "TYPE": "FSB", "UNIT": "BDU", "COUNTY": "San Bernardino", "CITY": "Apple Valley", "LAT": 34.44291871, "LON": -117.18581376 }, "geometry": { "type": "Point", "coordinates": [ -13045066.4564, 4088432.0471, 0.0 ] } },
{ "type": "Feature", "properties": { "FACILITY_S": "Active", "NAME": "Sky Forest", "TYPE": "FSB", "UNIT": "BDU", "COUNTY": "San Bernardino", "CITY": "Sky Forest", "LAT": 34.23276498, "LON": -117.18606876 }, "geometry": { "type": "Point", "coordinates": [ -13045094.841, 4060100.327799998223782, 0.0 ] } },
{ "type": "Feature", "properties": { "FACILITY_S": "Active", "NAME": "Running Springs", "TYPE": "FSB", "UNIT": "BDU", "COUNTY": "San Bernardino", "CITY": "Running Springs", "LAT": 34.21458544, "LON": -117.12122273 }, "geometry": { "type": "Point", "coordinates": [ -13037876.2128, 4057652.795699998736382, 0.0 ] } },
{ "type": "Feature", "properties": { "FACILITY_S": "Active", "NAME": "Big Bear Valley FS", "TYPE": "FSB", "UNIT": "BDU", "COUNTY": "San Bernardino", "CITY": "Big Bear", "LAT": 34.28914838, "LON": -116.81216265 }, "geometry": { "type": "Point", "coordinates": [ -13003471.7961, 4067694.654700003564358, 0.0 ] } },
{ "type": "Feature", "properties": { "FACILITY_S": "Active", "NAME": "Crestline", "TYPE": "FSB", "UNIT": "BDU", "COUNTY": "San Bernardino", "CITY": "CedarPines Park", "LAT": 34.24807496, "LON": -117.31519306 }, "geometry": { "type": "Point", "coordinates": [ -13059468.8945, 4062161.9358000010252, 0.0 ] } },
{ "type": "Feature", "properties": { "FACILITY_S": "Decommissioned", "NAME": "San Bernardino FLS", "TYPE": "SFM", "UNIT": "BDU", "COUNTY": "San Bernardino", "CITY": "San Bernardino", "LAT": 34.16012773, "LON": -117.28529781 }, "geometry": { "type": "Point", "coordinates": [ -13056139.629999998956919, 4050323.587200000882149, 0.0 ] } },
{ "type": "Feature", "properties": { "FACILITY_S": "Active", "NAME": "Lone Butte", "TYPE": "COM", "UNIT": "BDU", "COUNTY": "San Bernardino", "CITY": null, "LAT": 35.66614053, "LON": -117.59821443 }, "geometry": { "type": "Point", "coordinates": [ -13090973.3485, 4254779.532499998807907, 0.0 ] } },
{ "type": "Feature", "properties": { "FACILITY_S": "Active", "NAME": "Pebble Beach FS", "TYPE": "FSA", "UNIT": "BEU", "COUNTY": "Monterey", "CITY": "Pebble Beach", "LAT": 36.5891745, "LON": -121.94453718 }, "geometry": { "type": "Point", "coordinates": [ -13574805.2323, 4381997.346900001168251, 0.0 ] } },
{ "type": "Feature", "properties": { "FACILITY_S": "Active", "NAME": "Carmel Hill FFS", "TYPE": "FSAB", "UNIT": "BEU", "COUNTY": "Monterey", "CITY": "Pebble Beach", "LAT": 36.5738221, "LON": -121.91404685000001 }, "geometry": { "type": "Point", "coordinates": [ -13571411.0637, 4379869.078699998557568, 0.0 ] } },
{ "type": "Feature", "properties": { "FACILITY_S": "Active", "NAME": "Rio Road FS", "TYPE": "FSA", "UNIT": "BEU", "COUNTY": "Monterey", "CITY": "Carmel", "LAT": 36.53961281, "LON": -121.90727819 }, "geometry": { "type": "Point", "coordinates": [ -13570657.5801, 4375128.2412, 0.0 ] } },
{ "type": "Feature", "properties": { "FACILITY_S": "Active", "NAME": "Carmel Highlands FS", "TYPE": "FSA", "UNIT": "BEU", "COUNTY": "Monterey", "CITY": "Carmel", "LAT": 36.50461317, "LON": -121.93634076 }, "geometry": { "type": "Point", "coordinates": [ -13573892.8096, 4370280.043499998748302, 0.0 ] } },
{ "type": "Feature", "properties": { "FACILITY_S": "Active", "NAME": "Aromas FS", "TYPE": "FSAB", "UNIT": "BEU", "COUNTY": "Monterey", "CITY": "Aromas", "LAT": 36.87949563, "LON": -121.6409592 }, "geometry": { "type": "Point", "coordinates": [ -13541011.085, 4422324.001299999654293, 0.0 ] } },
{ "type": "Feature", "properties": { "FACILITY_S": "Active", "NAME": "Hollister FS", "TYPE": "FSB", "UNIT": "BEU", "COUNTY": "San Benito", "CITY": "Hollister", "LAT": 36.8431258, "LON": -121.3626496 }, "geometry": { "type": "Point", "coordinates": [ -13510029.796, 4417263.733599998056889, 0.0 ] } },
{ "type": "Feature", "properties": { "FACILITY_S": "Active", "NAME": "Antelope FS", "TYPE": "FSB", "UNIT": "BEU", "COUNTY": "San Benito", "CITY": "Paicines", "LAT": 36.6436984, "LON": -121.02914961 }, "geometry": { "type": "Point", "coordinates": [ -13472904.7389, 4389559.3091000020504, 0.0 ] } },
{ "type": "Feature", "properties": { "FACILITY_S": "Active", "NAME": "Bear Valley FS", "TYPE": "FSB", "UNIT": "BEU", "COUNTY": "San Benito", "CITY": "Paicinas", "LAT": 36.57128943, "LON": -121.18588544000001 }, "geometry": { "type": "Point", "coordinates": [ -13490352.493700001388788, 4379518.027000002563, 0.0 ] } },
{ "type": "Feature", "properties": { "FACILITY_S": "Active", "NAME": "Gonzales FS", "TYPE": "FSB", "UNIT": "BEU", "COUNTY": "Monterey", "CITY": "Soledad", "LAT": 36.4614376, "LON": -121.38119008 }, "geometry": { "type": "Point", "coordinates": [ -13512093.7096, 4364302.3301, 0.0 ] } },
{ "type": "Feature", "properties": { "FACILITY_S": "Active", "NAME": "Tularcitos FS", "TYPE": "FSB", "UNIT": "BEU", "COUNTY": "Monterey", "CITY": "Carmel Valley", "LAT": 36.44630461, "LON": -121.68588329000001 }, "geometry": { "type": "Point", "coordinates": [ -13546012.0076, 4362207.932199999690056, 0.0 ] } },
{ "type": "Feature", "properties": { "FACILITY_S": "Active", "NAME": "Beaver Dam FS", "TYPE": "FSB", "UNIT": "BEU", "COUNTY": "San Benito", "CITY": "Paicines", "LAT": 36.39013563, "LON": -120.93479066 }, "geometry": { "type": "Point", "coordinates": [ -13462400.7449, 4354437.757399998605251, 0.0 ] } },
{ "type": "Feature", "properties": { "FACILITY_S": "Active", "NAME": "King City FS", "TYPE": "FSB", "UNIT": "BEU", "COUNTY": "Monterey", "CITY": "King City", "LAT": 36.20577585, "LON": -121.13070162 }, "geometry": { "type": "Point", "coordinates": [ -13484209.4547, 4328973.553300000727177, 0.0 ] } },
{ "type": "Feature", "properties": { "FACILITY_S": "Active", "NAME": "Lockwood FS", "TYPE": "FSB", "UNIT": "BEU", "COUNTY": "Monterey", "CITY": "Lockwood", "LAT": 35.93727325, "LON": -121.10703764 }, "geometry": { "type": "Point", "coordinates": [ -13481575.1887, 4291994.366899996995926, 0.0 ] } },
{ "type": "Feature", "properties": { "FACILITY_S": "Active", "NAME": "Parkfield FS", "TYPE": "FSB", "UNIT": "BEU", "COUNTY": "Monterey", "CITY": "San Miguel", "LAT": 35.89894771, "LON": -120.43334899 }, "geometry": { "type": "Point", "coordinates": [ -13406580.498399998992682, 4286726.302599996328354, 0.0 ] } },
{ "type": "Feature", "properties": { "FACILITY_S": "Active", "NAME": "Bradley FS", "TYPE": "FSB", "UNIT": "BEU", "COUNTY": "Monterey", "CITY": "Bradley", "LAT": 35.86378982, "LON": -120.80316244 }, "geometry": { "type": "Point", "coordinates": [ -13447747.9495, 4281895.882700003683567, 0.0 ] } },
{ "type": "Feature", "properties": { "FACILITY_S": "Active", "NAME": "Gabilan CC", "TYPE": "CC", "UNIT": "BEU", "COUNTY": "Monterey", "CITY": "Soledad", "LAT": 36.46362809, "LON": -121.3831759 }, "geometry": { "type": "Point", "coordinates": [ -13512314.7697, 4364605.526699997484684, 0.0 ] } },
{ "type": "Feature", "properties": { "FACILITY_S": "Active", "NAME": "Hollister AAB", "TYPE": "AAB", "UNIT": "BEU", "COUNTY": "San Benito", "CITY": "Hollister", "LAT": 36.88704348, "LON": -121.40089891 }, "geometry": { "type": "Point", "coordinates": [ -13514287.6917, 4423374.465499997138977, 0.0 ] } },
{ "type": "Feature", "properties": { "FACILITY_S": "Active", "NAME": "Hollister HB", "TYPE": "HB", "UNIT": "BEU", "COUNTY": "San Benito", "CITY": "Hollister", "LAT": 36.887, "LON": -121.401 }, "geometry": { "type": "Point", "coordinates": [ -13514382.5974, 4423068.130699999630451, 0.0 ] } },
{ "type": "Feature", "properties": { "FACILITY_S": "Active", "NAME": "San Benito-Monterey ECC", "TYPE": "ECC", "UNIT": "BEU", "COUNTY": "Monterey", "CITY": "Monterey", "LAT": 36.58732126, "LON": -121.85915123 }, "geometry": { "type": "Point", "coordinates": [ -13565300.1107, 4381740.415100000798702, 0.0 ] } },
{ "type": "Feature", "properties": { "FACILITY_S": "Active", "NAME": "San Benito-Monterey UH", "TYPE": "HQ", "UNIT": "BEU", "COUNTY": "Monterey", "CITY": "Monterey", "LAT": 36.58658704, "LON": -121.85902033000001 }, "geometry": { "type": "Point", "coordinates": [ -13565285.5385, 4381638.624700002372265, 0.0 ] } },
{ "type": "Feature", "properties": { "FACILITY_S": "Active", "NAME": "Calandra COM/LO", "TYPE": "COM/LO", "UNIT": "BEU", "COUNTY": "Monterey", "CITY": null, "LAT": 35.95165327, "LON": -121.00162307 }, "geometry": { "type": "Point", "coordinates": [ -13469840.4905, 4293971.644799999892712, 0.0 ] } },
{ "type": "Feature", "properties": { "FACILITY_S": "Active", "NAME": "Call Mountain COM/LO", "TYPE": "COM/LO", "UNIT": "BEU", "COUNTY": "San Benito", "CITY": null, "LAT": 36.61914667, "LON": -121.06872043 }, "geometry": { "type": "Point", "coordinates": [ -13477309.7436, 4386153.553000003099442, 0.0 ] } },
{ "type": "Feature", "properties": { "FACILITY_S": "Active", "NAME": "Hernandez Mountain COM", "TYPE": "COM", "UNIT": "BEU", "COUNTY": "San Benito", "CITY": null, "LAT": 36.38251562, "LON": -120.85588284000001 }, "geometry": { "type": "Point", "coordinates": [ -13453616.7647, 4353384.071199998259544, 0.0 ] } },
{ "type": "Feature", "properties": { "FACILITY_S": "Active", "NAME": "Palo Escrito Peak COM", "TYPE": "COM", "UNIT": "BEU", "COUNTY": "Monterey", "CITY": null, "LAT": 36.40525389, "LON": -121.49208296 }, "geometry": { "type": "Point", "coordinates": [ -13524438.2488, 4356528.596600003540516, 0.0 ] } },
{ "type": "Feature", "properties": { "FACILITY_S": "Active", "NAME": "Smith Mountain COM/LO", "TYPE": "COM/LO", "UNIT": "BEU", "COUNTY": "Monterey", "CITY": null, "LAT": 36.07878368, "LON": -120.59587117 }, "geometry": { "type": "Point", "coordinates": [ -13424672.3906, 4311467.983999997377396, 0.0 ] } },
{ "type": "Feature", "properties": { "FACILITY_S": "Active", "NAME": "Soledad FS", "TYPE": "FSA", "UNIT": "BEU", "COUNTY": "Monterey", "CITY": "Soledad", "LAT": 36.42773741, "LON": -121.32759607 }, "geometry": { "type": "Point", "coordinates": [ -13506127.6505, 4359638.804300002753735, 0.0 ] } },
{ "type": "Feature", "properties": { "FACILITY_S": "Active", "NAME": "Mt Toro COM", "TYPE": "COM", "UNIT": "CZU", "COUNTY": "Monterey", "CITY": "Felton", "LAT": 36.53127447, "LON": -121.61567444000001 }, "geometry": { "type": "Point", "coordinates": [ -13538196.3935, 4373973.00620000064373, 0.0 ] } },
{ "type": "Feature", "properties": { "FACILITY_S": "Active", "NAME": "Pt. Sur COM", "TYPE": "COM", "UNIT": "BEU", "COUNTY": "Monterey", "CITY": null, "LAT": 36.3052993, "LON": -121.89905136 }, "geometry": { "type": "Point", "coordinates": [ -13569741.7702, 4342712.481200002133846, 0.0 ] } },
{ "type": "Feature", "properties": { "FACILITY_S": "Active", "NAME": "School Peak COM", "TYPE": "COM", "UNIT": "BEU", "COUNTY": "Monterey", "CITY": "San Juan Bautista", "LAT": 36.76018614, "LON": -121.49103374000001 }, "geometry": { "type": "Point", "coordinates": [ -13524321.4548, 4405733.019500002264977, 0.0 ] } },
{ "type": "Feature", "properties": { "FACILITY_S": "Active", "NAME": "Little River Hill COM", "TYPE": "COM", "UNIT": "BEU", "COUNTY": "Monterey", "CITY": null, "LAT": 36.31636766, "LON": -121.87161237 }, "geometry": { "type": "Point", "coordinates": [ -13566687.2749, 4344241.520400002598763, 0.0 ] } },
{ "type": "Feature", "properties": { "FACILITY_S": "Active", "NAME": "Fremont Peak COM", "TYPE": "COM", "UNIT": "BEU", "COUNTY": "Monterey", "CITY": "6 miles South of San Juan Bautista", "LAT": 36.7560753, "LON": -121.50241703 }, "geometry": { "type": "Point", "coordinates": [ -13525588.63740000128746, 4405161.832000002264977, 0.0 ] } },
{ "type": "Feature", "properties": { "FACILITY_S": "Active", "NAME": "Huckleberry COM", "TYPE": "COM", "UNIT": "BEU", "COUNTY": "Monterey", "CITY": "Pebble Beach", "LAT": 36.58600993, "LON": -121.92228999 }, "geometry": { "type": "Point", "coordinates": [ -13572328.6858000010252, 4381558.615099996328354, 0.0 ] } },
{ "type": "Feature", "properties": { "FACILITY_S": "Active", "NAME": "San Ardo FS", "TYPE": "FSA", "UNIT": "BEU", "COUNTY": "Monterey", "CITY": "San Ardo", "LAT": 36.02169153, "LON": -120.9033941 }, "geometry": { "type": "Point", "coordinates": [ -13458905.690499998629093, 4303607.178000003099442, 0.0 ] } },
{ "type": "Feature", "properties": { "FACILITY_S": "Active", "NAME": "Pine Canyon FS", "TYPE": "FSA", "UNIT": "BEU", "COUNTY": "Monterey", "CITY": "King City", "LAT": 36.18094095, "LON": -121.1510424 }, "geometry": { "type": "Point", "coordinates": [ -13486473.7796, 4325547.889700002968311, 0.0 ] } },
{ "type": "Feature", "properties": { "FACILITY_S": "Active", "NAME": "Arroyo Seco FS", "TYPE": "FSA", "UNIT": "BEU", "COUNTY": "Monterey", "CITY": "Greenfield", "LAT": 36.24638856, "LON": -121.43290497 }, "geometry": { "type": "Point", "coordinates": [ -13517850.582600001245737, 4334577.909400001168251, 0.0 ] } },
{ "type": "Feature", "properties": { "FACILITY_S": "Active", "NAME": "Corona COM", "TYPE": "COM", "UNIT": "BEU", "COUNTY": "Montetey", "CITY": "Carmel", "LAT": 36.5031057, "LON": -121.9161392 }, "geometry": { "type": "Point", "coordinates": [ -13571643.9826, 4370071.276900000870228, 0.0 ] } },
{ "type": "Feature", "properties": { "FACILITY_S": "Active", "NAME": "Pettits Peak COM", "TYPE": "COM", "UNIT": "BEU", "COUNTY": "Monterey", "CITY": "Greenfield", "LAT": 36.26469547, "LON": -121.31121733000001 }, "geometry": { "type": "Point", "coordinates": [ -13504302.940200001001358, 4337104.452799998223782, 0.0 ] } },
{ "type": "Feature", "properties": { "FACILITY_S": "Active", "NAME": "CNA Headquarters", "TYPE": "CNA", "UNIT": "CNA", "COUNTY": "Monterey", "CITY": "Soledad", "LAT": 36.46237338, "LON": -121.38252592000001 }, "geometry": { "type": "Point", "coordinates": [ -13512240.9769, 4364431.176100000739098, 0.0 ] } },
{ "type": "Feature", "properties": { "FACILITY_S": "Active", "NAME": "Upper Ridge FS", "TYPE": "FSA", "UNIT": "BTC", "COUNTY": "Butte", "CITY": "Magalia", "LAT": 39.81951176, "LON": -121.59213762 }, "geometry": { "type": "Point", "coordinates": [ -13535576.3301, 4839749.529500000178814, 0.0 ] } },
{ "type": "Feature", "properties": { "FACILITY_S": "Active", "NAME": "South Chico FS", "TYPE": "FSA", "UNIT": "BTC", "COUNTY": "Butte", "CITY": "Chico", "LAT": 39.71701141, "LON": -121.81617842 }, "geometry": { "type": "Point", "coordinates": [ -13560516.4399, 4824904.707699999213219, 0.0 ] } },
{ "type": "Feature", "properties": { "FACILITY_S": "Active", "NAME": "Durham FS", "TYPE": "FSA", "UNIT": "BTC", "COUNTY": "Butte", "CITY": "Durham", "LAT": 39.64365956, "LON": -121.80024484 }, "geometry": { "type": "Point", "coordinates": [ -13558742.721099998801947, 4814294.917599998414516, 0.0 ] } },
{ "type": "Feature", "properties": { "FACILITY_S": "Active", "NAME": "Bangor FS", "TYPE": "FSB", "UNIT": "BTU", "COUNTY": "Butte", "CITY": "Bangor", "LAT": 39.39039192, "LON": -121.40871187 }, "geometry": { "type": "Point", "coordinates": [ -13515157.459800001233816, 4777747.885200001299381, 0.0 ] } },
{ "type": "Feature", "properties": { "FACILITY_S": "Active", "NAME": "Palermo FS", "TYPE": "FSA", "UNIT": "BTC", "COUNTY": "Butte", "CITY": "Palermo", "LAT": 39.43559886, "LON": -121.5455652 }, "geometry": { "type": "Point", "coordinates": [ -13530391.9054, 4784261.581299997866154, 0.0 ] } },
{ "type": "Feature", "properties": { "FACILITY_S": "Active", "NAME": "Kelly Ridge FS", "TYPE": "FSA", "UNIT": "BTC", "COUNTY": "Butte", "CITY": "Oroville", "LAT": 39.51357222, "LON": -121.48637847000001 }, "geometry": { "type": "Point", "coordinates": [ -13523803.2684, 4795506.410300001502037, 0.0 ] } },
{ "type": "Feature", "properties": { "FACILITY_S": "Active", "NAME": "Richvale FS", "TYPE": "FSA", "UNIT": "BTC", "COUNTY": "Butte", "CITY": "Richvale", "LAT": 39.4951628, "LON": -121.74716792 }, "geometry": { "type": "Point", "coordinates": [ -13552834.2223, 4792850.378700003027916, 0.0 ] } },
{ "type": "Feature", "properties": { "FACILITY_S": "Active", "NAME": "Biggs FS", "TYPE": "FSA", "UNIT": "BTC", "COUNTY": "Butte", "CITY": "Biggs", "LAT": 39.41384161, "LON": -121.70904387 }, "geometry": { "type": "Point", "coordinates": [ -13548590.270100001245737, 4781126.132500000298023, 0.0 ] } },
{ "type": "Feature", "properties": { "FACILITY_S": "Active", "NAME": "Gridley FS", "TYPE": "FSA", "UNIT": "BTC", "COUNTY": "Butte", "CITY": "Gridley", "LAT": 39.36348872, "LON": -121.68581547 }, "geometry": { "type": "Point", "coordinates": [ -13546004.4954, 4773873.504299998283386, 0.0 ] } },
{ "type": "Feature", "properties": { "FACILITY_S": "Active", "NAME": "Oroville FS", "TYPE": "FSAB", "UNIT": "BTC", "COUNTY": "Butte", "CITY": "Oroville", "LAT": 39.52456779, "LON": -121.5688654 }, "geometry": { "type": "Point", "coordinates": [ -13532985.6731, 4797093.135399997234344, 0.0 ] } },
{ "type": "Feature", "properties": { "FACILITY_S": "Active", "NAME": "Robinson Mill FS", "TYPE": "FSB", "UNIT": "BTU", "COUNTY": "Butte", "CITY": "Oroville", "LAT": 39.49480312, "LON": -121.3203447 }, "geometry": { "type": "Point", "coordinates": [ -13505320.4706, 4792798.497699998319149, 0.0 ] } },
{ "type": "Feature", "properties": { "FACILITY_S": "Active", "NAME": "Feather Falls FS", "TYPE": "FSB", "UNIT": "BTU", "COUNTY": "Butte", "CITY": "Feather Falls", "LAT": 39.59346458, "LON": -121.24985809 }, "geometry": { "type": "Point", "coordinates": [ -13497473.937800001353025, 4807041.085600003600121, 0.0 ] } },
{ "type": "Feature", "properties": { "FACILITY_S": "Active", "NAME": "Harts Mill FS", "TYPE": "FSB", "UNIT": "BTU", "COUNTY": "Butte", "CITY": "Berry Creek", "LAT": 39.64219381, "LON": -121.43037964 }, "geometry": { "type": "Point", "coordinates": [ -13517569.5082, 4814083.026600003242493, 0.0 ] } },
{ "type": "Feature", "properties": { "FACILITY_S": "Active", "NAME": "Jarbo Gap FS", "TYPE": "FSB", "UNIT": "BTU", "COUNTY": "Butte", "CITY": "Oroville", "LAT": 39.73915052, "LON": -121.49572102 }, "geometry": { "type": "Point", "coordinates": [ -13524843.2804, 4828109.181999996304512, 0.0 ] } },
{ "type": "Feature", "properties": { "FACILITY_S": "Active", "NAME": "Paradise FS", "TYPE": "FSB", "UNIT": "BTU", "COUNTY": "Butte", "CITY": "Paradise", "LAT": 39.78543258, "LON": -121.59044751 }, "geometry": { "type": "Point", "coordinates": [ -13535388.1873, 4834811.4912, 0.0 ] } },
{ "type": "Feature", "properties": { "FACILITY_S": "Active", "NAME": "Stirling City FS", "TYPE": "FSB", "UNIT": "BTU", "COUNTY": "Butte", "CITY": "Stirling City", "LAT": 39.90438585, "LON": -121.52812039 }, "geometry": { "type": "Point", "coordinates": [ -13528449.9652, 4852058.357299998402596, 0.0 ] } },
{ "type": "Feature", "properties": { "FACILITY_S": "Active", "NAME": "Forest Ranch FS", "TYPE": "FSB", "UNIT": "BTU", "COUNTY": "Butte", "CITY": "Forest Ranch", "LAT": 39.92757235, "LON": -121.64702753 }, "geometry": { "type": "Point", "coordinates": [ -13541686.6496, 4855423.617399998009205, 0.0 ] } },
{ "type": "Feature", "properties": { "FACILITY_S": "Active", "NAME": "Cohasset FS", "TYPE": "FSB", "UNIT": "BTU", "COUNTY": "Butte", "CITY": "Cohasset", "LAT": 39.92371882, "LON": -121.73207917000001 }, "geometry": { "type": "Point", "coordinates": [ -13551154.556200001388788, 4854864.241099998354912, 0.0 ] } },
{ "type": "Feature", "properties": { "FACILITY_S": "Active", "NAME": "Butte Meadows FS", "TYPE": "FSB", "UNIT": "BTU", "COUNTY": "Butte", "CITY": "Butte Meadows", "LAT": 40.07865805, "LON": -121.56105799 }, "geometry": { "type": "Point", "coordinates": [ -13532116.5648, 4877380.000799998641014, 0.0 ] } },
{ "type": "Feature", "properties": { "FACILITY_S": "Active", "NAME": "Chico AAB", "TYPE": "AAB", "UNIT": "BTU", "COUNTY": "Butte", "CITY": "Chico", "LAT": 39.80276136, "LON": -121.85786048 }, "geometry": { "type": "Point", "coordinates": [ -13565156.4674, 4837322.105099998414516, 0.0 ] } },
{ "type": "Feature", "properties": { "FACILITY_S": "Temporarily Decommissioned", "NAME": "Bald Mountain LO", "TYPE": "LO", "UNIT": "BTU", "COUNTY": "Butte", "CITY": "Stirling City", "LAT": 39.95255867, "LON": -121.48244408 }, "geometry": { "type": "Point", "coordinates": [ -13523365.3014, 4859051.381300002336502, 0.0 ] } },
{ "type": "Feature", "properties": { "FACILITY_S": "Temporarily Decommissioned", "NAME": "Platt Mountain LO", "TYPE": "LO", "UNIT": "BTU", "COUNTY": "Butte", "CITY": "Forest Ranch", "LAT": 39.935913, "LON": -121.64764691000001 }, "geometry": { "type": "Point", "coordinates": [ -13541755.5988, 4856634.449199996888638, 0.0 ] } },
{ "type": "Feature", "properties": { "FACILITY_S": "Temporarily Decommissioned", "NAME": "Sawmill Peak LO", "TYPE": "LO", "UNIT": "BTU", "COUNTY": "Butte", "CITY": "Concow", "LAT": 39.81196655, "LON": -121.55877217 }, "geometry": { "type": "Point", "coordinates": [ -13531862.1041, 4838656.025700002908707, 0.0 ] } },
{ "type": "Feature", "properties": { "FACILITY_S": "Temporarily Decommissioned", "NAME": "Sunset Hill LO", "TYPE": "COM/LO", "UNIT": "BTU", "COUNTY": "Butte", "CITY": "Forbestown", "LAT": 39.52380163, "LON": -121.30027263 }, "geometry": { "type": "Point", "coordinates": [ -13503086.0587, 4796982.568999998271465, 0.0 ] } },
{ "type": "Feature", "properties": { "FACILITY_S": "Active", "NAME": "Butte UH", "TYPE": "HQ", "UNIT": "BTU", "COUNTY": "Butte", "CITY": "Oroville", "LAT": 39.52450533, "LON": -121.56858617 }, "geometry": { "type": "Point", "coordinates": [ -13532954.5897, 4797084.121200002729893, 0.0 ] } },
{ "type": "Feature", "properties": { "FACILITY_S": "Temporarily Decommissioned", "NAME": "Bloomer Hill COM/LO", "TYPE": "COM/LO", "UNIT": "BTU", "COUNTY": "Butte", "CITY": "Berry Creek", "LAT": 39.65173016, "LON": -121.46317299 }, "geometry": { "type": "Point", "coordinates": [ -13521220.0481, 4815461.721799999475479, 0.0 ] } },
{ "type": "Feature", "properties": { "FACILITY_S": "Active", "NAME": "Butte ECC", "TYPE": "ECC", "UNIT": "BTU", "COUNTY": "Butte", "CITY": "Oroville", "LAT": 39.52492475, "LON": -121.56840926 }, "geometry": { "type": "Point", "coordinates": [ -13532934.8961, 4797144.651699997484684, 0.0 ] } },
{ "type": "Feature", "properties": { "FACILITY_S": "Active", "NAME": "Nord FS", "TYPE": "FSA", "UNIT": "BTC", "COUNTY": "Butte", "CITY": "Chico", "LAT": 39.80437162, "LON": -121.90850926 }, "geometry": { "type": "Point", "coordinates": [ -13570794.6647, 4837555.433399997651577, 0.0 ] } },
{ "type": "Feature", "properties": { "FACILITY_S": "Active", "NAME": "Paradise Fire Department Station 81", "TYPE": "FSA", "UNIT": "PRA", "COUNTY": "Butte", "CITY": "Paradise", "LAT": 39.75379676, "LON": -121.62458631 }, "geometry": { "type": "Point", "coordinates": [ -13539188.5013, 4830229.679499998688698, 0.0 ] } },
{ "type": "Feature", "properties": { "FACILITY_S": "Active", "NAME": "Paradise Fire Department Station 82", "TYPE": "FSA", "UNIT": "PRA", "COUNTY": "Butte", "CITY": "Paradise", "LAT": 39.74881296, "LON": -121.59392195 }, "geometry": { "type": "Point", "coordinates": [ -13535774.9597, 4829508.070100001990795, 0.0 ] } },
{ "type": "Feature", "properties": { "FACILITY_S": "Active", "NAME": "Magalia Fire Center", "TYPE": "FCCCC", "UNIT": "BTU", "COUNTY": "Butte", "CITY": "Magalia", "LAT": 39.85367701, "LON": -121.58581126 }, "geometry": { "type": "Point", "coordinates": [ -13534872.082899998873472, 4844702.498800002038479, 0.0 ] } },
{ "type": "Feature", "properties": { "FACILITY_S": "Active", "NAME": "Chico FLS", "TYPE": "SFM", "UNIT": "CDF", "COUNTY": "Butte", "CITY": "Chico", "LAT": 39.77034111, "LON": -121.87534668000001 }, "geometry": { "type": "Point", "coordinates": [ -13567101.5323, 4832624.784999996423721, 0.0 ] } },
{ "type": "Feature", "properties": { "FACILITY_S": "Active", "NAME": "Openshaw Training Center", "TYPE": "TC", "UNIT": "BTU", "COUNTY": "Butte", "CITY": "Oroville", "LAT": 39.59188272, "LON": -121.63689157 }, "geometry": { "type": "Point", "coordinates": [ -13540556.831, 4806811.821800000965595, 0.0 ] } },
{ "type": "Feature", "properties": { "FACILITY_S": "Active", "NAME": "Oroville Fire Department Station 91", "TYPE": "FSA", "UNIT": "ORO", "COUNTY": "Butte", "CITY": "Oroville", "LAT": 39.50761696, "LON": -121.55356874 }, "geometry": { "type": "Point", "coordinates": [ -13531281.3766999989748, 4794646.391000002622604, 0.0 ] } },
{ "type": "Feature", "properties": { "FACILITY_S": "Active", "NAME": "BTU Prevention Bureau", "TYPE": "OC", "UNIT": "BTU", "COUNTY": "Butte", "CITY": "Oroville", "LAT": 39.52030556, "LON": -121.57016357000001 }, "geometry": { "type": "Point", "coordinates": [ -13533128.7045, 4796477.296700000762939, 0.0 ] } },
{ "type": "Feature", "properties": { "FACILITY_S": "Active", "NAME": "BTU Resource & Vegetation Management Office", "TYPE": "OC", "UNIT": "BTU", "COUNTY": "Butte", "CITY": "Chico", "LAT": 39.71305925, "LON": -121.79154052 }, "geometry": { "type": "Point", "coordinates": [ -13557772.273699998855591, 4824332.024800002574921, 0.0 ] } },
{ "type": "Feature", "properties": { "FACILITY_S": "Active", "NAME": "Table Mountain Fire Center", "TYPE": "FCFFC", "UNIT": "BTU", "COUNTY": "Butte", "CITY": "Oroville", "LAT": 39.518911, "LON": -121.51038786 }, "geometry": { "type": "Point", "coordinates": [ -13526474.5029, 4796276.052400000393391, 0.0 ] } },
{ "type": "Feature", "properties": { "FACILITY_S": "Active", "NAME": "Half Moon Bay FS", "TYPE": "FSA", "UNIT": "CZU", "COUNTY": "San Mateo", "CITY": "Half Moon Bay", "LAT": 37.45093739, "LON": -122.42886332 }, "geometry": { "type": "Point", "coordinates": [ -13628720.1906, 4502150.114399999380112, 0.0 ] } },
{ "type": "Feature", "properties": { "FACILITY_S": "Active", "NAME": "Cordilleras FS", "TYPE": "FSA", "UNIT": "CZU", "COUNTY": "San Mateo", "CITY": "Redwood City", "LAT": 37.4730872, "LON": -122.28603599 }, "geometry": { "type": "Point", "coordinates": [ -13612820.7224, 4505256.491599999368191, 0.0 ] } },
{ "type": "Feature", "properties": { "FACILITY_S": "Active", "NAME": "El Granada FS", "TYPE": "FSA", "UNIT": "CZU", "COUNTY": "San Mateo", "CITY": "El Granda", "LAT": 37.50239203, "LON": -122.47114842000001 }, "geometry": { "type": "Point", "coordinates": [ -13633093.5328, 4509162.003100000321865, 0.0 ] } },
{ "type": "Feature", "properties": { "FACILITY_S": "Active", "NAME": "Point Montara FS", "TYPE": "FSA", "UNIT": "CZU", "COUNTY": "San Mateo", "CITY": "Moss Beach", "LAT": 37.53228193, "LON": -122.51599446 }, "geometry": { "type": "Point", "coordinates": [ -13638419.5866, 4513562.707400001585484, 0.0 ] } },
{ "type": "Feature", "properties": { "FACILITY_S": "Active", "NAME": "Pajaro Valley FS", "TYPE": "FSA", "UNIT": "CZU", "COUNTY": "Santa Cruz", "CITY": "Watsonville", "LAT": 36.97424707, "LON": -121.74192796 }, "geometry": { "type": "Point", "coordinates": [ -13552250.877999998629093, 4435518.454099997878075, 0.0 ] } },
{ "type": "Feature", "properties": { "FACILITY_S": "Active", "NAME": "Pajaro Dunes FS", "TYPE": "FSA", "UNIT": "CZU", "COUNTY": "Santa Cruz", "CITY": "Watsonville", "LAT": 36.86613936, "LON": -121.81785585 }, "geometry": { "type": "Point", "coordinates": [ -13560671.781, 4420517.962600000202656, 0.0 ] } },
{ "type": "Feature", "properties": { "FACILITY_S": "Active", "NAME": "Chalk Mountain COM", "TYPE": "COM", "UNIT": "CZU", "COUNTY": "Santa Cruz", "CITY": "Felton", "LAT": 37.1605915, "LON": -122.29012385 }, "geometry": { "type": "Point", "coordinates": [ -13613275.7776, 4461515.5581, 0.0 ] } },
{ "type": "Feature", "properties": { "FACILITY_S": "Active", "NAME": "Mount Bielawski COM/LO", "TYPE": "COM/LO", "UNIT": "CZU", "COUNTY": "Santa Cruz", "CITY": "Felton", "LAT": 37.22263371, "LON": -122.09403707 }, "geometry": { "type": "Point", "coordinates": [ -13591447.493900001049042, 4470185.342699997127056, 0.0 ] } },
{ "type": "Feature", "properties": { "FACILITY_S": "Active", "NAME": "Allen Peak COM/LO", "TYPE": "COM/LO", "UNIT": "CZU", "COUNTY": "San Mateo", "CITY": "Felton", "LAT": 37.38720601, "LON": -122.29496578 }, "geometry": { "type": "Point", "coordinates": [ -13613814.7817, 4493217.309000000357628, 0.0 ] } },
{ "type": "Feature", "properties": { "FACILITY_S": "Active", "NAME": "Belmont FS", "TYPE": "FSAB", "UNIT": "CZU", "COUNTY": "San Mateo", "CITY": "San Mateo", "LAT": 37.51210817, "LON": -122.33884946000001 }, "geometry": { "type": "Point", "coordinates": [ -13618699.892900001257658, 4510731.182099997997284, 0.0 ] } },
{ "type": "Feature", "properties": { "FACILITY_S": "Active", "NAME": "Sky Londa FS", "TYPE": "FSAB", "UNIT": "CZU", "COUNTY": "San Mateo", "CITY": "Woodside", "LAT": 37.38751515, "LON": -122.26643631 }, "geometry": { "type": "Point", "coordinates": [ -13610638.8953, 4493260.620300002396107, 0.0 ] } },
{ "type": "Feature", "properties": { "FACILITY_S": "Active", "NAME": "Pescadero FS", "TYPE": "FSAB", "UNIT": "CZU", "COUNTY": "San Mateo", "CITY": "Pescadero", "LAT": 37.24961102, "LON": -122.39689908 }, "geometry": { "type": "Point", "coordinates": [ -13625161.944400001317263, 4473957.375600002706051, 0.0 ] } },
{ "type": "Feature", "properties": { "FACILITY_S": "Active", "NAME": "Big Creek FS", "TYPE": "FSB", "UNIT": "CZU", "COUNTY": "Santa Cruz", "CITY": "Davenport", "LAT": 37.05741897, "LON": -122.22481058 }, "geometry": { "type": "Point", "coordinates": [ -13606005.1349, 4447113.959799997508526, 0.0 ] } },
{ "type": "Feature", "properties": { "FACILITY_S": "Active", "NAME": "Burrell FS", "TYPE": "FSB", "UNIT": "CZU", "COUNTY": "Santa Cruz", "CITY": "Los Gatos", "LAT": 37.10830814, "LON": -121.90615809000001 }, "geometry": { "type": "Point", "coordinates": [ -13570532.897300001233816, 4454215.004299998283386, 0.0 ] } },
{ "type": "Feature", "properties": { "FACILITY_S": "Active", "NAME": "Corralitos FS", "TYPE": "FSB", "UNIT": "CZU", "COUNTY": "Santa Cruz", "CITY": "Watsonville", "LAT": 36.99125454, "LON": -121.80527739 }, "geometry": { "type": "Point", "coordinates": [ -13559302.906100001186132, 4437888.539200000464916, 0.0 ] } },
{ "type": "Feature", "properties": { "FACILITY_S": "Active", "NAME": "Jamison Creek FS", "TYPE": "FSB", "UNIT": "CZU", "COUNTY": "Santa Cruz", "CITY": "Boulder Creek", "LAT": 37.14598828, "LON": -122.15838168000001 }, "geometry": { "type": "Point", "coordinates": [ -13598610.303100001066923, 4459475.939099997282028, 0.0 ] } },
{ "type": "Feature", "properties": { "FACILITY_S": "Active", "NAME": "Saratoga Summit FS", "TYPE": "FSB", "UNIT": "CZU", "COUNTY": "Santa Cruz", "CITY": "Los Gatos", "LAT": 37.26090306, "LON": -122.13194577 }, "geometry": { "type": "Point", "coordinates": [ -13595667.4726, 4475536.660400003194809, 0.0 ] } },
{ "type": "Feature", "properties": { "FACILITY_S": "Temporarily Decommissioned", "NAME": "Soquel FS", "TYPE": "FSB", "UNIT": "CZU", "COUNTY": "Santa Cruz", "CITY": "Soquel", "LAT": 37.0467852, "LON": -121.93776808 }, "geometry": { "type": "Point", "coordinates": [ -13574051.7051, 4445630.735100001096725, 0.0 ] } },
{ "type": "Feature", "properties": { "FACILITY_S": "Active", "NAME": "Fall Creek FS", "TYPE": "FSB", "UNIT": "CZU", "COUNTY": "Santa Cruz", "CITY": "Bonny Doon", "LAT": 37.05722535, "LON": -122.12212464 }, "geometry": { "type": "Point", "coordinates": [ -13594574.1862, 4447086.951899997889996, 0.0 ] } },
{ "type": "Feature", "properties": { "FACILITY_S": "Active", "NAME": "Ben Lomond CC", "TYPE": "CC", "UNIT": "CZU", "COUNTY": "Santa Cruz", "CITY": "Santa Cruz", "LAT": 37.12940511, "LON": -122.17058481 }, "geometry": { "type": "Point", "coordinates": [ -13599737.05009999871254, 4457310.743600003421307, 0.0 ] } },
{ "type": "Feature", "properties": { "FACILITY_S": "Active", "NAME": "San Mateo-Santa Cruz ECC", "TYPE": "ECC", "UNIT": "CZU", "COUNTY": "Santa Cruz", "CITY": "Felton", "LAT": 37.04877976, "LON": -122.07410946 }, "geometry": { "type": "Point", "coordinates": [ -13589222.591699998825788, 4445916.388700000941753, 0.0 ] } },
{ "type": "Feature", "properties": { "FACILITY_S": "Active", "NAME": "San Mateo-Santa Cruz UH", "TYPE": "HQ", "UNIT": "CZU", "COUNTY": "Santa Cruz", "CITY": "Felton", "LAT": 37.04893419, "LON": -122.07347245 }, "geometry": { "type": "Point", "coordinates": [ -13589158.2489, 4445930.463699996471405, 0.0 ] } },
{ "type": "Feature", "properties": { "FACILITY_S": "Active", "NAME": "Pise Mtn COM", "TYPE": "COM", "UNIT": "CZU", "COUNTY": "San Mateo", "CITY": "Felton", "LAT": 37.45583069, "LON": -122.34134529000001 }, "geometry": { "type": "Point", "coordinates": [ -13618977.726, 4502836.291900001466274, 0.0 ] } },
{ "type": "Feature", "properties": { "FACILITY_S": "Active", "NAME": "Felton Maintenance Shop", "TYPE": "EQF", "UNIT": "CZU", "COUNTY": "Santa Cruz", "CITY": "Felton", "LAT": 37.04884596, "LON": -122.07503462 }, "geometry": { "type": "Point", "coordinates": [ -13589330.693, 4445917.472800001502037, 0.0 ] } },
{ "type": "Feature", "properties": { "FACILITY_S": "Active", "NAME": "Felton FS", "TYPE": "FSB", "UNIT": "CZU", "COUNTY": "Santa Cruz", "CITY": "Felton", "LAT": 37.0485698, "LON": -122.07443381 }, "geometry": { "type": "Point", "coordinates": [ -13589263.810600001364946, 4445878.955799996852875, 0.0 ] } },
{ "type": "Feature", "properties": { "FACILITY_S": "Active", "NAME": "Ben Lomond Training Center", "TYPE": "TC", "UNIT": "CZU", "COUNTY": "Santa Cruz", "CITY": "Santa Cruz", "LAT": 37.13138184, "LON": -122.17163446000001 }, "geometry": { "type": "Point", "coordinates": [ -13600084.1379, 4457435.577399998903275, 0.0 ] } },
{ "type": "Feature", "properties": { "FACILITY_S": "Temporarily Decommissioned", "NAME": "Soquel Demonstration State Forest", "TYPE": "VC", "UNIT": "CZU", "COUNTY": "Santa Cruz", "CITY": "Soquel", "LAT": 37.04645687, "LON": -121.93724695 }, "geometry": { "type": "Point", "coordinates": [ -13573992.2389, 4445584.255199998617172, 0.0 ] } },
{ "type": "Feature", "properties": { "FACILITY_S": "Active", "NAME": "North Peak COM", "TYPE": "COM", "UNIT": "CZU", "COUNTY": "San Mateo", "CITY": "Felton", "LAT": 37.5614, "LON": -122.4781 }, "geometry": { "type": "Point", "coordinates": [ -13634199.7253, 4517650.288900002837181, 0.0 ] } },
{ "type": "Feature", "properties": { "FACILITY_S": "Active", "NAME": "Station 96", "TYPE": "FSA", "UNIT": "FCO", "COUNTY": "Fresno", "CITY": "Mendota", "LAT": 36.76137497, "LON": -120.3872911 }, "geometry": { "type": "Point", "coordinates": [ -13401453.3666, 4405898.218800000846386, 0.0 ] } },
{ "type": "Feature", "properties": { "FACILITY_S": "Active", "NAME": "Station 95", "TYPE": "FSA", "UNIT": "FCO", "COUNTY": "Fresno", "CITY": "Tranquility", "LAT": 36.64245526, "LON": -120.24496694 }, "geometry": { "type": "Point", "coordinates": [ -13385609.9098, 4389386.844400003552437, 0.0 ] } },
{ "type": "Feature", "properties": { "FACILITY_S": "Active", "NAME": "Station 94", "TYPE": "FSA", "UNIT": "FCO", "COUNTY": "Fresno", "CITY": "Coalinga", "LAT": 36.25410337, "LON": -120.231106 }, "geometry": { "type": "Point", "coordinates": [ -13384066.9125, 4335642.855899997055531, 0.0 ] } },
{ "type": "Feature", "properties": { "FACILITY_S": "Active", "NAME": "Station 93", "TYPE": "FSA", "UNIT": "FCO", "COUNTY": "Fresno", "CITY": "Huron", "LAT": 36.2046197, "LON": -120.10425234 }, "geometry": { "type": "Point", "coordinates": [ -13369945.625500001013279, 4328814.061999998986721, 0.0 ] } },
{ "type": "Feature", "properties": { "FACILITY_S": "Active", "NAME": "Station 90", "TYPE": "FSA", "UNIT": "FCO", "COUNTY": "Fresno", "CITY": "Caruthers", "LAT": 36.53663488, "LON": -119.83978377 }, "geometry": { "type": "Point", "coordinates": [ -13340505.1179, 4374715.667999997735023, 0.0 ] } },
{ "type": "Feature", "properties": { "FACILITY_S": "Active", "NAME": "Station 89", "TYPE": "FSA", "UNIT": "FCO", "COUNTY": "Fresno", "CITY": "Fresno", "LAT": 36.65057749, "LON": -119.7814432 }, "geometry": { "type": "Point", "coordinates": [ -13334010.6752, 4390513.76630000025034, 0.0 ] } },
{ "type": "Feature", "properties": { "FACILITY_S": "Active", "NAME": "Staton 83", "TYPE": "FSA", "UNIT": "FCO", "COUNTY": "Fresno", "CITY": "Selma", "LAT": 36.54726443, "LON": -119.58368279 }, "geometry": { "type": "Point", "coordinates": [ -13311996.0822, 4376188.467600002884865, 0.0 ] } },
{ "type": "Feature", "properties": { "FACILITY_S": "Active", "NAME": "Station 72", "TYPE": "FSA", "UNIT": "FCO", "COUNTY": "Fresno", "CITY": "Friant", "LAT": 36.9925997, "LON": -119.70695492 }, "geometry": { "type": "Point", "coordinates": [ -13325718.6809, 4438076.037900000810623, 0.0 ] } },
{ "type": "Feature", "properties": { "FACILITY_S": "Active", "NAME": "Station 85", "TYPE": "FSA", "UNIT": "FCO", "COUNTY": "Fresno", "CITY": "Clovis", "LAT": 36.85155849, "LON": -119.6933847 }, "geometry": { "type": "Point", "coordinates": [ -13324208.0481, 4418436.806500002741814, 0.0 ] } },
{ "type": "Feature", "properties": { "FACILITY_S": "Active", "NAME": "Station 87", "TYPE": "FSA", "UNIT": "FCO", "COUNTY": "Fresno", "CITY": "Fresno", "LAT": 36.70566805, "LON": -119.74124209 }, "geometry": { "type": "Point", "coordinates": [ -13329535.5075, 4398160.431699998676777, 0.0 ] } },
{ "type": "Feature", "properties": { "FACILITY_S": "Active", "NAME": "Station 86", "TYPE": "FSA", "UNIT": "FCO", "COUNTY": "Fresno", "CITY": "Clovis", "LAT": 36.80770398, "LON": -119.5793285 }, "geometry": { "type": "Point", "coordinates": [ -13311511.3677, 4412337.692800000309944, 0.0 ] } },
{ "type": "Feature", "properties": { "FACILITY_S": "Active", "NAME": "Station 82", "TYPE": "FSA", "UNIT": "FCO", "COUNTY": "Fresno", "CITY": "Del Rey", "LAT": 36.66377095, "LON": -119.61562501 }, "geometry": { "type": "Point", "coordinates": [ -13315551.8757, 4392344.544399999082088, 0.0 ] } },
{ "type": "Feature", "properties": { "FACILITY_S": "Active", "NAME": "Station 75", "TYPE": "FSA", "UNIT": "FCO", "COUNTY": "Fresno", "CITY": "Tollhouse", "LAT": 37.0063443, "LON": -119.40576641 }, "geometry": { "type": "Point", "coordinates": [ -13292190.5238, 4439991.846900001168251, 0.0 ] } },
{ "type": "Feature", "properties": { "FACILITY_S": "Active", "NAME": "Station 74", "TYPE": "FSA", "UNIT": "FCO", "COUNTY": "Fresno", "CITY": "Clovis", "LAT": 36.98883796, "LON": -119.52880207 }, "geometry": { "type": "Point", "coordinates": [ -13305886.7926, 4437551.7654, 0.0 ] } },
{ "type": "Feature", "properties": { "FACILITY_S": "Active", "NAME": "Station 73", "TYPE": "FSAB", "UNIT": "FCO", "COUNTY": "Fresno", "CITY": "Clovis", "LAT": 37.01428553, "LON": -119.56785923 }, "geometry": { "type": "Point", "coordinates": [ -13310234.616700001060963, 4441098.901100002229214, 0.0 ] } },
{ "type": "Feature", "properties": { "FACILITY_S": "Active", "NAME": "Station 77", "TYPE": "FSA", "UNIT": "FCO", "COUNTY": "Fresno", "CITY": "Sanger", "LAT": 36.79182755, "LON": -119.31055431 }, "geometry": { "type": "Point", "coordinates": [ -13281591.5571, 4410130.524300001561642, 0.0 ] } },
{ "type": "Feature", "properties": { "FACILITY_S": "Active", "NAME": "Station 71", "TYPE": "FSA", "UNIT": "FCO", "COUNTY": "Fresno", "CITY": "Parlier", "LAT": 36.61187492, "LON": -119.53936003 }, "geometry": { "type": "Point", "coordinates": [ -13307062.0948, 4385145.054799996316433, 0.0 ] } },
{ "type": "Feature", "properties": { "FACILITY_S": "Active", "NAME": "Southern Region RHQ", "TYPE": "RHQ", "UNIT": "FKU", "COUNTY": "Fresno", "CITY": "Fresno", "LAT": 36.80957953, "LON": -119.76715479000001 }, "geometry": { "type": "Point", "coordinates": [ -13332420.0986, 4412598.462999999523163, 0.0 ] } },
{ "type": "Feature", "properties": { "FACILITY_S": "Active", "NAME": "Fresno ICC", "TYPE": "ICC", "UNIT": "FKU", "COUNTY": "Fresno", "CITY": "Fresno", "LAT": 36.77170005, "LON": -119.70093142 }, "geometry": { "type": "Point", "coordinates": [ -13325048.1444, 4407333.01519999653101, 0.0 ] } },
{ "type": "Feature", "properties": { "FACILITY_S": "Active", "NAME": "Bear Mountain COM/LO", "TYPE": "COM/LO", "UNIT": "FKU", "COUNTY": "Fresno", "CITY": "Squaw Valley", "LAT": 36.74588563, "LON": -119.28210742 }, "geometry": { "type": "Point", "coordinates": [ -13278424.86259999871254, 4403746.168200001120567, 0.0 ] } },
{ "type": "Feature", "properties": { "FACILITY_S": "Active", "NAME": "Black Mountain COM/LO", "TYPE": "COM/LO", "UNIT": "FKU", "COUNTY": "Fresno", "CITY": "Clovis", "LAT": 37.01273126, "LON": -119.45184977 }, "geometry": { "type": "Point", "coordinates": [ -13297320.5007, 4440882.218099996447563, 0.0 ] } },
{ "type": "Feature", "properties": { "FACILITY_S": "Active", "NAME": "Joaquin Ridge COM", "TYPE": "COM", "UNIT": "FKU", "COUNTY": "Fresno", "CITY": "Coalinga", "LAT": 36.30413896, "LON": -120.40332187 }, "geometry": { "type": "Point", "coordinates": [ -13403237.8997, 4342552.2128000035882, 0.0 ] } },
{ "type": "Feature", "properties": { "FACILITY_S": "Active", "NAME": "Coalinga FS", "TYPE": "FSB", "UNIT": "FKU", "COUNTY": "Fresno", "CITY": "Coalinga", "LAT": 36.1376457, "LON": -120.27327747 }, "geometry": { "type": "Point", "coordinates": [ -13388761.418200001120567, 4319578.456600002944469, 0.0 ] } },
{ "type": "Feature", "properties": { "FACILITY_S": "Active", "NAME": "Sand Creek FS", "TYPE": "FSB", "UNIT": "FKU", "COUNTY": "Fresno", "CITY": "Squaw Valley", "LAT": 36.68217222, "LON": -119.17758493 }, "geometry": { "type": "Point", "coordinates": [ -13266789.4691, 4394898.505199998617172, 0.0 ] } },
{ "type": "Feature", "properties": { "FACILITY_S": "Active", "NAME": "Sanger FS", "TYPE": "FSAB", "UNIT": "FKU", "COUNTY": "Fresno", "CITY": "Sanger", "LAT": 36.732582, "LON": -119.55610178000001 }, "geometry": { "type": "Point", "coordinates": [ -13308925.7794, 4401898.129299998283386, 0.0 ] } },
{ "type": "Feature", "properties": { "FACILITY_S": "Active", "NAME": "Squaw Valley FS", "TYPE": "FSB", "UNIT": "FKU", "COUNTY": "Fresno", "CITY": "Squaw Valley", "LAT": 36.74942005, "LON": -119.22242801 }, "geometry": { "type": "Point", "coordinates": [ -13271781.3793, 4404237.195799998939037, 0.0 ] } },
{ "type": "Feature", "properties": { "FACILITY_S": "Active", "NAME": "Piedra FS", "TYPE": "FSB", "UNIT": "FKU", "COUNTY": "Fresno", "CITY": "Sanger", "LAT": 36.81281396, "LON": -119.38192629 }, "geometry": { "type": "Point", "coordinates": [ -13289536.6503, 4413048.189800001680851, 0.0 ] } },
{ "type": "Feature", "properties": { "FACILITY_S": "Active", "NAME": "Blasingame FS", "TYPE": "FSB", "UNIT": "FKU", "COUNTY": "Fresno", "CITY": "Clovis", "LAT": 36.96020163, "LON": -119.44689994 }, "geometry": { "type": "Point", "coordinates": [ -13296769.487300001084805, 4433561.566200003027916, 0.0 ] } },
{ "type": "Feature", "properties": { "FACILITY_S": "Active", "NAME": "Millerton FS", "TYPE": "FSB", "UNIT": "FKU", "COUNTY": "Fresno", "CITY": "Friant", "LAT": 36.99272916, "LON": -119.70690509000001 }, "geometry": { "type": "Point", "coordinates": [ -13325713.1329, 4438094.08110000193119, 0.0 ] } },
{ "type": "Feature", "properties": { "FACILITY_S": "Active", "NAME": "Hurley FS", "TYPE": "FSB", "UNIT": "FKU", "COUNTY": "Fresno", "CITY": "Clovis", "LAT": 37.01446854, "LON": -119.56772596 }, "geometry": { "type": "Point", "coordinates": [ -13310219.7807, 4441124.415600001811981, 0.0 ] } },
{ "type": "Feature", "properties": { "FACILITY_S": "Active", "NAME": "Shaver Lake FS", "TYPE": "FSB", "UNIT": "FKU", "COUNTY": "Fresno", "CITY": "Shaver Lake", "LAT": 37.10566747, "LON": -119.31114798 }, "geometry": { "type": "Point", "coordinates": [ -13281657.6475, 4453846.434299997985363, 0.0 ] } },
{ "type": "Feature", "properties": { "FACILITY_S": "Active", "NAME": "Miramonte CC", "TYPE": "CC", "UNIT": "FKU", "COUNTY": "Fresno", "CITY": "Miramonte", "LAT": 36.67232349, "LON": -119.0855484 }, "geometry": { "type": "Point", "coordinates": [ -13256544.007399998605251, 4393531.501400001347065, 0.0 ] } },
{ "type": "Feature", "properties": { "FACILITY_S": "Active", "NAME": "Fresno AAB", "TYPE": "AAB", "UNIT": "FKU", "COUNTY": "Fresno", "CITY": "Fresno", "LAT": 36.77099854, "LON": -119.70170402 }, "geometry": { "type": "Point", "coordinates": [ -13325134.1501, 4407235.526100002229214, 0.0 ] } },
{ "type": "Feature", "properties": { "FACILITY_S": "Active", "NAME": "FKU Auto Shop", "TYPE": "EQF", "UNIT": "FKU", "COUNTY": "Fresno", "CITY": "Del Ray", "LAT": 36.66412167, "LON": -119.61570703 }, "geometry": { "type": "Point", "coordinates": [ -13315561.0062, 4392393.215300001204014, 0.0 ] } },
{ "type": "Feature", "properties": { "FACILITY_S": "Active", "NAME": "China Peak COM", "TYPE": "COM", "UNIT": "FKU", "COUNTY": "Fresno", "CITY": "Lakeshore", "LAT": 37.21931968, "LON": -119.15498463 }, "geometry": { "type": "Point", "coordinates": [ -13264273.621399998664856, 4469722.088600002229214, 0.0 ] } },
{ "type": "Feature", "properties": { "FACILITY_S": "Active", "NAME": "Millerton Helitack Base", "TYPE": "HB", "UNIT": "FKU", "COUNTY": "Fresno", "CITY": "Friant", "LAT": 36.99243859, "LON": -119.70721238 }, "geometry": { "type": "Point", "coordinates": [ -13325747.3412, 4438053.58330000191927, 0.0 ] } },
{ "type": "Feature", "properties": { "FACILITY_S": "Active", "NAME": "Fresno-Kings Unit HQ", "TYPE": "HQ", "UNIT": "FKU", "COUNTY": "Fresno", "CITY": "Sanger", "LAT": 36.73326787, "LON": -119.55595389 }, "geometry": { "type": "Point", "coordinates": [ -13308909.316399998962879, 4401993.397900000214577, 0.0 ] } },
{ "type": "Feature", "properties": { "FACILITY_S": "Active", "NAME": "Mid Valley Regional Training Center", "TYPE": "TC", "UNIT": "FKU", "COUNTY": "Fresno", "CITY": "Del Ray", "LAT": 36.663743, "LON": -119.61626493 }, "geometry": { "type": "Point", "coordinates": [ -13315623.1113, 4392340.664899997413158, 0.0 ] } },
{ "type": "Feature", "properties": { "FACILITY_S": "Active", "NAME": "Shaver Lake COM", "TYPE": "COM", "UNIT": "FKU", "COUNTY": "Fresno", "CITY": "Shaver Lake", "LAT": 37.09851647, "LON": -119.31465589 }, "geometry": { "type": "Point", "coordinates": [ -13282048.1466, 4452848.336000002920628, 0.0 ] } },
{ "type": "Feature", "properties": { "FACILITY_S": "Active", "NAME": "Flat Top COM", "TYPE": "COM", "UNIT": "FKU", "COUNTY": "Kings", "CITY": null, "LAT": 35.92778578, "LON": -120.15543926 }, "geometry": { "type": "Point", "coordinates": [ -13375643.7242, 4290690.028899997472763, 0.0 ] } },
{ "type": "Feature", "properties": { "FACILITY_S": "Active", "NAME": "Fresno FLS", "TYPE": "SFM", "UNIT": "CDF", "COUNTY": "Fresno", "CITY": "Fresno", "LAT": 36.73466701, "LON": -119.78586895 }, "geometry": { "type": "Point", "coordinates": [ -13334501.936099998652935, 4402187.039899997413158, 0.0 ] } },
{ "type": "Feature", "properties": { "FACILITY_S": "Decommissioned", "NAME": "Iaqua Butte LO", "TYPE": "LO", "UNIT": "HUU", "COUNTY": "Humboldt", "CITY": null, "LAT": 40.66904042, "LON": -123.88270052 }, "geometry": { "type": "Point", "coordinates": [ -13790560.6776, 4963647.824100002646446, 0.0 ] } },
{ "type": "Feature", "properties": { "FACILITY_S": "Active", "NAME": "Humboldt-Del Norte ECC", "TYPE": "ECC", "UNIT": "HUU", "COUNTY": "Humboldt", "CITY": "Fortuna", "LAT": 40.59230707, "LON": -124.14746916 }, "geometry": { "type": "Point", "coordinates": [ -13820034.5901, 4952392.499499998986721, 0.0 ] } },
{ "type": "Feature", "properties": { "FACILITY_S": "Active", "NAME": "Humboldt-Del Norte UH", "TYPE": "HQ", "UNIT": "HUU", "COUNTY": "Humboldt", "CITY": "Fortuna", "LAT": 40.5923741, "LON": -124.1471398 }, "geometry": { "type": "Point", "coordinates": [ -13819997.9264, 4952402.3257, 0.0 ] } },
{ "type": "Feature", "properties": { "FACILITY_S": "Active", "NAME": "Grasshopper Mountain COM/LO", "TYPE": "COM/LO", "UNIT": "HUU", "COUNTY": "Humboldt", "CITY": "Weott", "LAT": 40.30672218, "LON": -123.97789402 }, "geometry": { "type": "Point", "coordinates": [ -13801157.5648, 4910615.665899999439716, 0.0 ] } },
{ "type": "Feature", "properties": { "FACILITY_S": "Active", "NAME": "Mount Pierce COM", "TYPE": "COM", "UNIT": "HUU", "COUNTY": "Humboldt", "CITY": "Scotia", "LAT": 40.41720388, "LON": -124.12004619 }, "geometry": { "type": "Point", "coordinates": [ -13816981.8759, 4926756.454499997198582, 0.0 ] } },
{ "type": "Feature", "properties": { "FACILITY_S": "Active", "NAME": "Pratt Mountain COM", "TYPE": "COM", "UNIT": "HUU", "COUNTY": "Humboldt", "CITY": "Alderpoint", "LAT": 40.1201563, "LON": -123.69252673 }, "geometry": { "type": "Point", "coordinates": [ -13769390.616, 4883419.191299997270107, 0.0 ] } },
{ "type": "Feature", "properties": { "FACILITY_S": "Active", "NAME": "Red Mountain COM", "TYPE": "COM", "UNIT": "HUU", "COUNTY": "Del Norte", "CITY": "Crescent City", "LAT": 41.52379604, "LON": -123.90800814000001 }, "geometry": { "type": "Point", "coordinates": [ -13793377.9232, 5089911.932499997317791, 0.0 ] } },
{ "type": "Feature", "properties": { "FACILITY_S": "Active", "NAME": "Tompkins Hill COM", "TYPE": "COM", "UNIT": "HUU", "COUNTY": "Humboldt", "CITY": "Loleta", "LAT": 40.6303696, "LON": -124.19307865 }, "geometry": { "type": "Point", "coordinates": [ -13825111.817200001329184, 4957973.931199997663498, 0.0 ] } },
{ "type": "Feature", "properties": { "FACILITY_S": "Active", "NAME": "Thorn FS", "TYPE": "FSB", "UNIT": "HUU", "COUNTY": "Humboldt", "CITY": "Whitethorn", "LAT": 40.05664805, "LON": -123.96191227 }, "geometry": { "type": "Point", "coordinates": [ -13799378.479899998754263, 4874178.364799998700619, 0.0 ] } },
{ "type": "Feature", "properties": { "FACILITY_S": "Active", "NAME": "Garberville FS", "TYPE": "FSB", "UNIT": "HUU", "COUNTY": "Humboldt", "CITY": "Garberville", "LAT": 40.1061063, "LON": -123.79075617 }, "geometry": { "type": "Point", "coordinates": [ -13780325.4684, 4881374.089000001549721, 0.0 ] } },
{ "type": "Feature", "properties": { "FACILITY_S": "Active", "NAME": "Alderpoint FS", "TYPE": "FSB", "UNIT": "HUU", "COUNTY": "Humboldt", "CITY": "Alderpoint", "LAT": 40.18672901, "LON": -123.59086234 }, "geometry": { "type": "Point", "coordinates": [ -13758073.387, 4893115.182499997317791, 0.0 ] } },
{ "type": "Feature", "properties": { "FACILITY_S": "Active", "NAME": "Mattole FS", "TYPE": "FSB", "UNIT": "HUU", "COUNTY": "Humboldt", "CITY": "Petrolia", "LAT": 40.23808759, "LON": -124.13286943 }, "geometry": { "type": "Point", "coordinates": [ -13818409.3501, 4900601.80629999935627, 0.0 ] } },
{ "type": "Feature", "properties": { "FACILITY_S": "Active", "NAME": "Weott FS", "TYPE": "FSB", "UNIT": "HUU", "COUNTY": "Humboldt", "CITY": "Weott", "LAT": 40.32162674, "LON": -123.92419341 }, "geometry": { "type": "Point", "coordinates": [ -13795179.6393, 4912791.60080000013113, 0.0 ] } },
{ "type": "Feature", "properties": { "FACILITY_S": "Active", "NAME": "Bridgeville FS", "TYPE": "FSB", "UNIT": "HUU", "COUNTY": "Humboldt", "CITY": "Bridgeville", "LAT": 40.4731855, "LON": -123.79365714 }, "geometry": { "type": "Point", "coordinates": [ -13780648.4091, 4934945.193400003015995, 0.0 ] } },
{ "type": "Feature", "properties": { "FACILITY_S": "Active", "NAME": "Fortuna FS", "TYPE": "FSB", "UNIT": "HUU", "COUNTY": "Humboldt", "CITY": "Fortuna", "LAT": 40.59222844, "LON": -124.14803409 }, "geometry": { "type": "Point", "coordinates": [ -13820020.1456, 4952425.759300000965595, 0.0 ] } },
{ "type": "Feature", "properties": { "FACILITY_S": "Active", "NAME": "Trinidad FS", "TYPE": "FSB", "UNIT": "HUU", "COUNTY": "Humboldt", "CITY": "Trinidad", "LAT": 41.07624426, "LON": -124.14509336 }, "geometry": { "type": "Point", "coordinates": [ -13819770.1259, 5023594.933899998664856, 0.0 ] } },
{ "type": "Feature", "properties": { "FACILITY_S": "Active", "NAME": "Elk Camp FS", "TYPE": "FSB", "UNIT": "HUU", "COUNTY": "Humboldt", "CITY": "Orick", "LAT": 41.22201001, "LON": -123.95914536 }, "geometry": { "type": "Point", "coordinates": [ -13799070.4879, 5045144.197499997913837, 0.0 ] } },
{ "type": "Feature", "properties": { "FACILITY_S": "Active", "NAME": "Klamath FS", "TYPE": "FSB", "UNIT": "HUU", "COUNTY": "Del Norte", "CITY": "Klamath", "LAT": 41.52500024, "LON": -123.99424168 }, "geometry": { "type": "Point", "coordinates": [ -13802977.3989, 5090090.982799999415874, 0.0 ] } },
{ "type": "Feature", "properties": { "FACILITY_S": "Active", "NAME": "Crescent City FS", "TYPE": "FSB", "UNIT": "HUU", "COUNTY": "Del Norte", "CITY": "Crescent City", "LAT": 41.76490256, "LON": -124.19451143000001 }, "geometry": { "type": "Point", "coordinates": [ -13825271.3324, 5125828.543300002813339, 0.0 ] } },
{ "type": "Feature", "properties": { "FACILITY_S": "Active", "NAME": "Alder CC", "TYPE": "CC", "UNIT": "HUU", "COUNTY": "Del Norte", "CITY": "Klamath", "LAT": 41.50047814, "LON": -124.0605575 }, "geometry": { "type": "Point", "coordinates": [ -13810359.6423, 5086445.472800001502037, 0.0 ] } },
{ "type": "Feature", "properties": { "FACILITY_S": "Active", "NAME": "Eel River CC", "TYPE": "CC", "UNIT": "HUU", "COUNTY": "Humboldt", "CITY": "Redway", "LAT": 40.13832443, "LON": -123.82290496 }, "geometry": { "type": "Point", "coordinates": [ -13783904.256900001317263, 4886064.345200002193451, 0.0 ] } },
{ "type": "Feature", "properties": { "FACILITY_S": "Active", "NAME": "High Rock Fire Center", "TYPE": "FCFFC", "UNIT": "HUU", "COUNTY": "Humboldt", "CITY": "Weott", "LAT": 40.37500671, "LON": -123.93137984000001 }, "geometry": { "type": "Point", "coordinates": [ -13795979.6299, 4920588.550800003111362, 0.0 ] } },
{ "type": "Feature", "properties": { "FACILITY_S": "Active", "NAME": "Rohnerville AAB", "TYPE": "AAB", "UNIT": "HUU", "COUNTY": "Humboldt", "CITY": "Fortuna", "LAT": 40.55289035, "LON": -124.12657976 }, "geometry": { "type": "Point", "coordinates": [ -13817709.1921, 4946615.838500000536442, 0.0 ] } },
{ "type": "Feature", "properties": { "FACILITY_S": "Active", "NAME": "Kneeland HB", "TYPE": "HB", "UNIT": "HUU", "COUNTY": "Humboldt", "CITY": "Kneeland", "LAT": 40.71904292, "LON": -123.92966499000001 }, "geometry": { "type": "Point", "coordinates": [ -13795788.74, 4970989.209299996495247, 0.0 ] } },
{ "type": "Feature", "properties": { "FACILITY_S": "Active", "NAME": "Horse Mountain COM", "TYPE": "COM", "UNIT": "HUU", "COUNTY": "Humboldt", "CITY": "Willow Creek", "LAT": 40.87443364, "LON": -123.73301583 }, "geometry": { "type": "Point", "coordinates": [ -13773897.855, 4993839.005599997937679, 0.0 ] } },
{ "type": "Feature", "properties": { "FACILITY_S": "Active", "NAME": "Mckinleyville FLS", "TYPE": "SFM", "UNIT": "CDF", "COUNTY": "Humboldt", "CITY": "McKinleyVille", "LAT": 40.94128102, "LON": -124.10166138 }, "geometry": { "type": "Point", "coordinates": [ -13814933.7515, 5003684.481499999761581, 0.0 ] } },
{ "type": "Feature", "properties": { "FACILITY_S": "Active", "NAME": "Trinidad Head COM", "TYPE": "COM", "UNIT": "HUU", "COUNTY": "Humboldt", "CITY": "Trinidad", "LAT": 41.05436499, "LON": -124.15068718000001 }, "geometry": { "type": "Point", "coordinates": [ -13820391.2783, 5020363.797899998724461, 0.0 ] } },
{ "type": "Feature", "properties": { "FACILITY_S": "Active", "NAME": "Fieldbrook COM", "TYPE": "COM", "UNIT": "HUU", "COUNTY": "Humboldt", "CITY": "Fieldbrook", "LAT": 40.97815714, "LON": -124.01147445 }, "geometry": { "type": "Point", "coordinates": [ -13804894.1877, 5009120.381300002336502, 0.0 ] } },
{ "type": "Feature", "properties": { "FACILITY_S": "Active", "NAME": "Belle Vista Hill COM", "TYPE": "COM", "UNIT": "HUU", "COUNTY": "Humboldt", "CITY": "McKinleyville", "LAT": 40.92353872, "LON": -124.08832164 }, "geometry": { "type": "Point", "coordinates": [ -13813448.778099998831749, 5001070.175999999046326, 0.0 ] } },
{ "type": "Feature", "properties": { "FACILITY_S": "Active", "NAME": "Kneeland Fire Station COM", "TYPE": "COM", "UNIT": "HUU", "COUNTY": "Humboldt", "CITY": "Kneeland", "LAT": 40.77468033, "LON": -124.00252171 }, "geometry": { "type": "Point", "coordinates": [ -13803897.5743, 4979163.656999997794628, 0.0 ] } },
{ "type": "Feature", "properties": { "FACILITY_S": "Active", "NAME": "Orleans Mountain COM", "TYPE": "COM", "UNIT": "HUU", "COUNTY": "Humboldt", "CITY": "Orleans", "LAT": 41.27892794, "LON": -123.45338465 }, "geometry": { "type": "Point", "coordinates": [ -13742767.9157, 5053570.935000002384186, 0.0 ] } },
{ "type": "Feature", "properties": { "FACILITY_S": "Active", "NAME": "Petrolia COM", "TYPE": "COM", "UNIT": "HUU", "COUNTY": "Humboldt", "CITY": "Petrolia", "LAT": 40.27289481, "LON": -124.31183389 }, "geometry": { "type": "Point", "coordinates": [ -13838330.0481, 4905678.215800002217293, 0.0 ] } },
{ "type": "Feature", "properties": { "FACILITY_S": "Active", "NAME": "Toth Road COM", "TYPE": "COM", "UNIT": "HUU", "COUNTY": "Humboldt", "CITY": "Shelter Cove", "LAT": 40.0338159, "LON": -124.04054335 }, "geometry": { "type": "Point", "coordinates": [ -13808130.123, 4870857.530799999833107, 0.0 ] } },
{ "type": "Feature", "properties": { "FACILITY_S": "Active", "NAME": "Fortuna Center CCC", "TYPE": "FCCCC", "UNIT": "HUU", "COUNTY": "Humboldt", "CITY": "Fortuna", "LAT": 40.58078929, "LON": -124.15278728 }, "geometry": { "type": "Point", "coordinates": [ -13820625.0604, 4950703.440800003707409, 0.0 ] } },
{ "type": "Feature", "properties": { "FACILITY_S": "Active", "NAME": "KRN Station  14 FS", "TYPE": "FSCC", "UNIT": "KRN", "COUNTY": "Kern", "CITY": "Mojave", "LAT": 35.04694093, "LON": -118.16683623 }, "geometry": { "type": "Point", "coordinates": [ -13154273.4023, 4170262.735399998724461, 0.0 ] } },
{ "type": "Feature", "properties": { "FACILITY_S": "Active", "NAME": "KRN Station  15 FS", "TYPE": "FSCC", "UNIT": "KRN", "COUNTY": "Kern", "CITY": "Rosamond", "LAT": 34.86658047, "LON": -118.19411285 }, "geometry": { "type": "Point", "coordinates": [ -13157309.8212, 4145765.383199997246265, 0.0 ] } },
{ "type": "Feature", "properties": { "FACILITY_S": "Active", "NAME": "KRN Station  16 FS", "TYPE": "FSCC", "UNIT": "KRN", "COUNTY": "Kern", "CITY": "Tehachapi", "LAT": 35.165848, "LON": -118.64412554 }, "geometry": { "type": "Point", "coordinates": [ -13207405.0158, 4186442.801399998366833, 0.0 ] } },
{ "type": "Feature", "properties": { "FACILITY_S": "Active", "NAME": "KRN Station  21 FS", "TYPE": "FSCC", "UNIT": "KRN", "COUNTY": "Kern", "CITY": "Taft", "LAT": 35.14386215, "LON": -119.46538159000001 }, "geometry": { "type": "Point", "coordinates": [ -13298826.835900001227856, 4183449.329899996519089, 0.0 ] } },
{ "type": "Feature", "properties": { "FACILITY_S": "Active", "NAME": "KRN Station  24 FS", "TYPE": "FSCC", "UNIT": "KRN", "COUNTY": "Kern", "CITY": "McKittrick", "LAT": 35.30722016, "LON": -119.62231189000001 }, "geometry": { "type": "Point", "coordinates": [ -13316296.241700001060963, 4205710.579599998891354, 0.0 ] } },
{ "type": "Feature", "properties": { "FACILITY_S": "Active", "NAME": "KRN Station  35 FS", "TYPE": "FSCC", "UNIT": "KRN", "COUNTY": "Kern", "CITY": "Woody", "LAT": 35.70529042, "LON": -118.83230961 }, "geometry": { "type": "Point", "coordinates": [ -13228353.5797, 4260145.879900000989437, 0.0 ] } },
{ "type": "Feature", "properties": { "FACILITY_S": "Active", "NAME": "KRN Station  78 FS", "TYPE": "FSCC", "UNIT": "KRN", "COUNTY": "Kern", "CITY": "Caliente", "LAT": 35.38347323, "LON": -118.41206315 }, "geometry": { "type": "Point", "coordinates": [ -13181571.9459, 4216117.189900003373623, 0.0 ] } },
{ "type": "Feature", "properties": { "FACILITY_S": "Active", "NAME": "BFD Station 15 FS", "TYPE": "FSL", "UNIT": "BAK", "COUNTY": "Kern", "CITY": "Bakersfield", "LAT": 35.34263286, "LON": -119.12854872 }, "geometry": { "type": "Point", "coordinates": [ -13261330.768, 4210542.292300000786781, 0.0 ] } },
{ "type": "Feature", "properties": { "FACILITY_S": "Active", "NAME": "KRN Station  11 FS", "TYPE": "FSCC", "UNIT": "KRN", "COUNTY": "Kern", "CITY": "Keene", "LAT": 35.22501366, "LON": -118.56769785 }, "geometry": { "type": "Point", "coordinates": [ -13198897.1232, 4194502.478100001811981, 0.0 ] } },
{ "type": "Feature", "properties": { "FACILITY_S": "Active", "NAME": "KRN Station  12 FS", "TYPE": "FSCC", "UNIT": "KRN", "COUNTY": "Kern", "CITY": "Tehachapi", "LAT": 35.12397934, "LON": -118.44997348 }, "geometry": { "type": "Point", "coordinates": [ -13185792.1034, 4180742.906000003218651, 0.0 ] } },
{ "type": "Feature", "properties": { "FACILITY_S": "Active", "NAME": "KRN Station  79 FS", "TYPE": "FSCC", "UNIT": "KRN", "COUNTY": "Kern", "CITY": "Glennville", "LAT": 35.72659892, "LON": -118.70059278 }, "geometry": { "type": "Point", "coordinates": [ -13213690.9266, 4263067.410999998450279, 0.0 ] } },
{ "type": "Feature", "properties": { "FACILITY_S": "Active", "NAME": "KRN Station  45 FS", "TYPE": "FSCC", "UNIT": "KRN", "COUNTY": "Kern", "CITY": "Bakersfield", "LAT": 35.34726359, "LON": -118.87250589 }, "geometry": { "type": "Point", "coordinates": [ -13232828.206, 4211174.268100000917912, 0.0 ] } },
{ "type": "Feature", "properties": { "FACILITY_S": "Active", "NAME": "KRN Station  48 FS", "TYPE": "FSCC", "UNIT": "KRN", "COUNTY": "Kern", "CITY": "Arvin", "LAT": 35.21092949, "LON": -118.83321776 }, "geometry": { "type": "Point", "coordinates": [ -13228454.6691, 4192583.366700001060963, 0.0 ] } },
{ "type": "Feature", "properties": { "FACILITY_S": "Active", "NAME": "KRN Station  56 FS", "TYPE": "FSCC", "UNIT": "KRN", "COUNTY": "Kern", "CITY": "Lebec", "LAT": 34.83352304, "LON": -118.86487665 }, "geometry": { "type": "Point", "coordinates": [ -13231978.918, 4141281.205799996852875, 0.0 ] } },
{ "type": "Feature", "properties": { "FACILITY_S": "Active", "NAME": "KRN Station  72 FS", "TYPE": "FSCC", "UNIT": "KRN", "COUNTY": "Kern", "CITY": "Lake Isabella", "LAT": 35.60369788, "LON": -118.48605555 }, "geometry": { "type": "Point", "coordinates": [ -13189808.7463, 4246227.624600000679493, 0.0 ] } },
{ "type": "Feature", "properties": { "FACILITY_S": "Active", "NAME": "KRN Station  76 FS", "TYPE": "FSCC", "UNIT": "KRN", "COUNTY": "Kern", "CITY": "Kernville", "LAT": 35.75463362, "LON": -118.42516203 }, "geometry": { "type": "Point", "coordinates": [ -13183030.1114999987185, 4266912.337999999523163, 0.0 ] } },
{ "type": "Feature", "properties": { "FACILITY_S": "Active", "NAME": "KRN Station  55 FS", "TYPE": "FSCC", "UNIT": "KRN", "COUNTY": "Kern", "CITY": "Lebec", "LAT": 34.99181922, "LON": -118.94744992 }, "geometry": { "type": "Point", "coordinates": [ -13241170.9352, 4162770.132700003683567, 0.0 ] } },
{ "type": "Feature", "properties": { "FACILITY_S": "Active", "NAME": "KRN Station  26 FS", "TYPE": "FSL", "UNIT": "KRN", "COUNTY": "Kern", "CITY": "Lost Hills", "LAT": 35.61796891, "LON": -119.68950509 }, "geometry": { "type": "Point", "coordinates": [ -13323776.1581, 4248181.688400000333786, 0.0 ] } },
{ "type": "Feature", "properties": { "FACILITY_S": "Active", "NAME": "KRN Station  87 FS", "TYPE": "FSL", "UNIT": "KRN", "COUNTY": "Kern", "CITY": "Boron", "LAT": 35.00311037, "LON": -117.65051097 }, "geometry": { "type": "Point", "coordinates": [ -13096796.327, 4164304.518399998545647, 0.0 ] } },
{ "type": "Feature", "properties": { "FACILITY_S": "Active", "NAME": "KRN Station  18 FS", "TYPE": "FSL", "UNIT": "KRN", "COUNTY": "Kern", "CITY": "Stallion Springs", "LAT": 35.08402758, "LON": -118.63430928 }, "geometry": { "type": "Point", "coordinates": [ -13206312.2738, 4175306.700800001621246, 0.0 ] } },
{ "type": "Feature", "properties": { "FACILITY_S": "Active", "NAME": "KRN Station  22 FS", "TYPE": "FSL", "UNIT": "KRN", "COUNTY": "Kern", "CITY": "Maricopa", "LAT": 35.05673899, "LON": -119.40282413 }, "geometry": { "type": "Point", "coordinates": [ -13291862.968600001186132, 4171595.087499998509884, 0.0 ] } },
{ "type": "Feature", "properties": { "FACILITY_S": "Active", "NAME": "KRN Station  23 FS", "TYPE": "FSL", "UNIT": "KRN", "COUNTY": "Kern", "CITY": "Fellows", "LAT": 35.17963408, "LON": -119.54232651 }, "geometry": { "type": "Point", "coordinates": [ -13307392.3072, 4188320.240199998021126, 0.0 ] } },
{ "type": "Feature", "properties": { "FACILITY_S": "Active", "NAME": "KRN Station  25 FS", "TYPE": "FSL", "UNIT": "KRN", "COUNTY": "Kern", "CITY": "Buttonwillow", "LAT": 35.40067713, "LON": -119.46777074000001 }, "geometry": { "type": "Point", "coordinates": [ -13299092.7969, 4218466.433499999344349, 0.0 ] } },
{ "type": "Feature", "properties": { "FACILITY_S": "Active", "NAME": "KRN Station  31 FS", "TYPE": "FSL", "UNIT": "KRN", "COUNTY": "Kern", "CITY": "Wasco", "LAT": 35.59450656, "LON": -119.3531529 }, "geometry": { "type": "Point", "coordinates": [ -13286333.5981, 4244969.271499998867512, 0.0 ] } },
{ "type": "Feature", "properties": { "FACILITY_S": "Active", "NAME": "KRN Station  32 FS", "TYPE": "FSL", "UNIT": "KRN", "COUNTY": "Kern", "CITY": "Shafter", "LAT": 35.50408406, "LON": -119.27707116000001 }, "geometry": { "type": "Point", "coordinates": [ -13277864.2152, 4232597.593999996781349, 0.0 ] } },
{ "type": "Feature", "properties": { "FACILITY_S": "Active", "NAME": "KRN Station  33 FS", "TYPE": "FSL", "UNIT": "KRN", "COUNTY": "Kern", "CITY": "McFarland", "LAT": 35.68182575, "LON": -119.23427268 }, "geometry": { "type": "Point", "coordinates": [ -13273099.9103, 4256929.625100001692772, 0.0 ] } },
{ "type": "Feature", "properties": { "FACILITY_S": "Active", "NAME": "KRN Station  34 FS", "TYPE": "FSL", "UNIT": "KRN", "COUNTY": "Kern", "CITY": "Delano", "LAT": 35.77209699, "LON": -119.24467957 }, "geometry": { "type": "Point", "coordinates": [ -13274258.4013, 4269308.096199996769428, 0.0 ] } },
{ "type": "Feature", "properties": { "FACILITY_S": "Active", "NAME": "KRN Station  37 FS", "TYPE": "FSL", "UNIT": "KRN", "COUNTY": "Kern", "CITY": "Delano", "LAT": 35.7684144, "LON": -119.25999088 }, "geometry": { "type": "Point", "coordinates": [ -13275962.84910000115633, 4268802.844999998807907, 0.0 ] } },
{ "type": "Feature", "properties": { "FACILITY_S": "Active", "NAME": "KRN Station  41 FS", "TYPE": "FSL", "UNIT": "KRN", "COUNTY": "Kern", "CITY": "Bakersfield", "LAT": 35.36157732, "LON": -118.96679966000001 }, "geometry": { "type": "Point", "coordinates": [ -13243324.942200001329184, 4213127.945799998939037, 0.0 ] } },
{ "type": "Feature", "properties": { "FACILITY_S": "Active", "NAME": "KRN Station  42 FS", "TYPE": "FSL", "UNIT": "KRN", "COUNTY": "Kern", "CITY": "Bakersfield", "LAT": 35.37680261, "LON": -118.93173155 }, "geometry": { "type": "Point", "coordinates": [ -13239421.1778, 4215206.423799999058247, 0.0 ] } },
{ "type": "Feature", "properties": { "FACILITY_S": "Active", "NAME": "KRN Station  46 FS", "TYPE": "FSL", "UNIT": "KRN", "COUNTY": "Kern", "CITY": "Lamont", "LAT": 35.27407674, "LON": -118.91203896 }, "geometry": { "type": "Point", "coordinates": [ -13237229.007199998944998, 4201190.412000000476837, 0.0 ] } },
{ "type": "Feature", "properties": { "FACILITY_S": "Active", "NAME": "KRN Station  47 FS", "TYPE": "FSL", "UNIT": "KRN", "COUNTY": "Kern", "CITY": "Bakersfield", "LAT": 35.26703804, "LON": -119.0061929 }, "geometry": { "type": "Point", "coordinates": [ -13247710.1771, 4200230.696099996566772, 0.0 ] } },
{ "type": "Feature", "properties": { "FACILITY_S": "Active", "NAME": "KRN Station  53 FS", "TYPE": "FSL", "UNIT": "KRN", "COUNTY": "Kern", "CITY": "Bakersfield", "LAT": 35.26692141, "LON": -119.10721818 }, "geometry": { "type": "Point", "coordinates": [ -13258956.2618, 4200214.793300002813339, 0.0 ] } },
{ "type": "Feature", "properties": { "FACILITY_S": "Active", "NAME": "KRN Station  61 FS", "TYPE": "FSL", "UNIT": "KRN", "COUNTY": "Kern", "CITY": "Bakersfield", "LAT": 35.41814572, "LON": -119.07421311 }, "geometry": { "type": "Point", "coordinates": [ -13255282.1554, 4220852.348300002515316, 0.0 ] } },
{ "type": "Feature", "properties": { "FACILITY_S": "Active", "NAME": "KRN Station  62 FS", "TYPE": "FSL", "UNIT": "KRN", "COUNTY": "Kern", "CITY": "Bakersfield", "LAT": 35.42919499, "LON": -119.05590164 }, "geometry": { "type": "Point", "coordinates": [ -13253243.7311, 4222361.755900003015995, 0.0 ] } },
{ "type": "Feature", "properties": { "FACILITY_S": "Active", "NAME": "KRN Station  63 FS", "TYPE": "FSL", "UNIT": "KRN", "COUNTY": "Kern", "CITY": "Bakersfield", "LAT": 35.43102598, "LON": -119.02158136 }, "geometry": { "type": "Point", "coordinates": [ -13249423.215, 4222611.902300000190735, 0.0 ] } },
{ "type": "Feature", "properties": { "FACILITY_S": "Active", "NAME": "KRN Station  64 FS", "TYPE": "FSL", "UNIT": "KRN", "COUNTY": "Kern", "CITY": "Bakersfield", "LAT": 35.4084548, "LON": -119.02007346000001 }, "geometry": { "type": "Point", "coordinates": [ -13249255.3558, 4219528.670900002121925, 0.0 ] } },
{ "type": "Feature", "properties": { "FACILITY_S": "Active", "NAME": "KRN Station  65 FS", "TYPE": "FSL", "UNIT": "KRN", "COUNTY": "Kern", "CITY": "Bakersfield", "LAT": 35.38365555, "LON": -119.10721899000001 }, "geometry": { "type": "Point", "coordinates": [ -13259723.11259999871254, 4217050.961800001561642, 0.0 ] } },
{ "type": "Feature", "properties": { "FACILITY_S": "Active", "NAME": "KRN Station  66 FS", "TYPE": "FSL", "UNIT": "KRN", "COUNTY": "Kern", "CITY": "Bakersfield", "LAT": 35.38729892, "LON": -119.05883766 }, "geometry": { "type": "Point", "coordinates": [ -13253570.5676, 4216639.552699998021126, 0.0 ] } },
{ "type": "Feature", "properties": { "FACILITY_S": "Active", "NAME": "KRN Station  67 FS", "TYPE": "FSL", "UNIT": "KRN", "COUNTY": "Kern", "CITY": "Bakersfield", "LAT": 35.36875968, "LON": -119.16131201 }, "geometry": { "type": "Point", "coordinates": [ -13264977.9611, 4214108.393500000238419, 0.0 ] } },
{ "type": "Feature", "properties": { "FACILITY_S": "Active", "NAME": "KRN Station  58 FS", "TYPE": "FSL", "UNIT": "KRN", "COUNTY": "Kern", "CITY": "Pine Mountain Club", "LAT": 34.85040752, "LON": -119.16963483000001 }, "geometry": { "type": "Point", "coordinates": [ -13265904.449, 4143571.322899997234344, 0.0 ] } },
{ "type": "Feature", "properties": { "FACILITY_S": "Active", "NAME": "KRN Station  57 FS", "TYPE": "FSL", "UNIT": "KRN", "COUNTY": "Kern", "CITY": "Frazier Park", "LAT": 34.82320881, "LON": -118.96236692 }, "geometry": { "type": "Point", "coordinates": [ -13242831.4861, 4139882.4695999994874, 0.0 ] } },
{ "type": "Feature", "properties": { "FACILITY_S": "Active", "NAME": "KRN Station  71 FS", "TYPE": "FSL", "UNIT": "KRN", "COUNTY": "Kern", "CITY": "Weldon", "LAT": 35.64703832, "LON": -118.36065704000001 }, "geometry": { "type": "Point", "coordinates": [ -13175849.4463, 4252163.135200001299381, 0.0 ] } },
{ "type": "Feature", "properties": { "FACILITY_S": "Active", "NAME": "KRN Station  83 FS", "TYPE": "FSL", "UNIT": "KRN", "COUNTY": "Kern", "CITY": "Inyokern", "LAT": 35.65245669, "LON": -117.82440194 }, "geometry": { "type": "Point", "coordinates": [ -13116153.791000001132488, 4252905.417099997401237, 0.0 ] } },
{ "type": "Feature", "properties": { "FACILITY_S": "Active", "NAME": "KRN Station  84 FS", "TYPE": "FSL", "UNIT": "KRN", "COUNTY": "Kern", "CITY": "Ridgecrest", "LAT": 35.62831845, "LON": -117.66806323 }, "geometry": { "type": "Point", "coordinates": [ -13098750.2425, 4249599.044100001454353, 0.0 ] } },
{ "type": "Feature", "properties": { "FACILITY_S": "Active", "NAME": "KRN Station  85 FS", "TYPE": "FSL", "UNIT": "KRN", "COUNTY": "Kern", "CITY": "Randsburg", "LAT": 35.3677722, "LON": -117.6521963 }, "geometry": { "type": "Point", "coordinates": [ -13096983.9415, 4213973.603100001811981, 0.0 ] } },
{ "type": "Feature", "properties": { "FACILITY_S": "Active", "NAME": "KRN Station  81 FS", "TYPE": "FSL", "UNIT": "KRN", "COUNTY": "Kern", "CITY": "Ridgecrest", "LAT": 35.6005189, "LON": -117.68615386 }, "geometry": { "type": "Point", "coordinates": [ -13100764.0823, 4245792.394500002264977, 0.0 ] } },
{ "type": "Feature", "properties": { "FACILITY_S": "Active", "NAME": "KRN  HQ", "TYPE": "HQ", "UNIT": "KRN", "COUNTY": "Kern", "CITY": "Bakersfield", "LAT": 35.41110265, "LON": -119.06044217 }, "geometry": { "type": "Point", "coordinates": [ -13253725.8917, 4219964.371699996292591, 0.0 ] } },
{ "type": "Feature", "properties": { "FACILITY_S": "Active", "NAME": "CAL Station  19 FS", "TYPE": "FSL", "UNIT": "CAL", "COUNTY": "Kern", "CITY": "California City", "LAT": 35.12415379, "LON": -117.95950011 }, "geometry": { "type": "Point", "coordinates": [ -13131192.8486, 4180766.653099998831749, 0.0 ] } },
{ "type": "Feature", "properties": { "FACILITY_S": "Active", "NAME": "BFD Station 1 FS", "TYPE": "FSL", "UNIT": "BAK", "COUNTY": "Kern", "CITY": "Bakersfield", "LAT": 35.37851591, "LON": -119.02141075 }, "geometry": { "type": "Point", "coordinates": [ -13249404.2225, 4215440.338600002229214, 0.0 ] } },
{ "type": "Feature", "properties": { "FACILITY_S": "Active", "NAME": "BFD Station 2 FS", "TYPE": "FSL", "UNIT": "BAK", "COUNTY": "Kern", "CITY": "Bakersfield", "LAT": 35.3757842, "LON": -118.99231639 }, "geometry": { "type": "Point", "coordinates": [ -13246165.4526, 4215067.383299998939037, 0.0 ] } },
{ "type": "Feature", "properties": { "FACILITY_S": "Active", "NAME": "BFD Station 3 FS", "TYPE": "FSL", "UNIT": "BAK", "COUNTY": "Kern", "CITY": "Bakersfield", "LAT": 35.36157709, "LON": -119.04180125000001 }, "geometry": { "type": "Point", "coordinates": [ -13251674.0823, 4213127.914499998092651, 0.0 ] } },
{ "type": "Feature", "properties": { "FACILITY_S": "Active", "NAME": "BFD Station 4 FS", "TYPE": "FSL", "UNIT": "BAK", "COUNTY": "Kern", "CITY": "Bakersfield", "LAT": 35.39050512, "LON": -118.99941516 }, "geometry": { "type": "Point", "coordinates": [ -13246955.683600001037121, 4217077.35419999808073, 0.0 ] } },
{ "type": "Feature", "properties": { "FACILITY_S": "Active", "NAME": "BFD Station 5 FS", "TYPE": "FSL", "UNIT": "BAK", "COUNTY": "Kern", "CITY": "Bakersfield", "LAT": 35.31782535, "LON": -118.99906947 }, "geometry": { "type": "Point", "coordinates": [ -13246917.2014, 4207157.334700003266335, 0.0 ] } },
{ "type": "Feature", "properties": { "FACILITY_S": "Active", "NAME": "BFD Station 6 FS", "TYPE": "FSL", "UNIT": "BAK", "COUNTY": "Kern", "CITY": "Bakersfield", "LAT": 35.3536911, "LON": -119.00492539 }, "geometry": { "type": "Point", "coordinates": [ -13247569.08, 4212051.513400003314018, 0.0 ] } },
{ "type": "Feature", "properties": { "FACILITY_S": "Active", "NAME": "BFD Station 7 FS", "TYPE": "FSL", "UNIT": "BAK", "COUNTY": "Kern", "CITY": "Bakersfield", "LAT": 35.33785425, "LON": -119.0474232 }, "geometry": { "type": "Point", "coordinates": [ -13252299.914900001138449, 4209890.176600001752377, 0.0 ] } },
{ "type": "Feature", "properties": { "FACILITY_S": "Active", "NAME": "BFD Station 8 FS", "TYPE": "FSL", "UNIT": "BAK", "COUNTY": "Kern", "CITY": "Bakersfield", "LAT": 35.40475812, "LON": -118.96791653 }, "geometry": { "type": "Point", "coordinates": [ -13243449.272300001233816, 4219023.785599999129772, 0.0 ] } },
{ "type": "Feature", "properties": { "FACILITY_S": "Active", "NAME": "BFD Station 9 FS", "TYPE": "FSL", "UNIT": "BAK", "COUNTY": "Kern", "CITY": "Bakersfield", "LAT": 35.33033159, "LON": -119.09100034 }, "geometry": { "type": "Point", "coordinates": [ -13257150.9001, 4208863.668099999427795, 0.0 ] } },
{ "type": "Feature", "properties": { "FACILITY_S": "Active", "NAME": "BFD Station 11 FS", "TYPE": "FSL", "UNIT": "BAK", "COUNTY": "Kern", "CITY": "Bakersfield", "LAT": 35.35448602, "LON": -119.07936045 }, "geometry": { "type": "Point", "coordinates": [ -13255855.154, 4212160.01070000231266, 0.0 ] } },
{ "type": "Feature", "properties": { "FACILITY_S": "Active", "NAME": "BFD Station 10 FS", "TYPE": "FSL", "UNIT": "BAK", "COUNTY": "Kern", "CITY": "Bakersfield", "LAT": 35.43049542, "LON": -118.86981862 }, "geometry": { "type": "Point", "coordinates": [ -13232529.0614, 4222539.418799996376038, 0.0 ] } },
{ "type": "Feature", "properties": { "FACILITY_S": "Active", "NAME": "BFD Station 13 FS", "TYPE": "FSL", "UNIT": "BAK", "COUNTY": "Kern", "CITY": "Bakersfield", "LAT": 35.29128641, "LON": -119.05706345 }, "geometry": { "type": "Point", "coordinates": [ -13253373.0618, 4203537.273199997842312, 0.0 ] } },
{ "type": "Feature", "properties": { "FACILITY_S": "Active", "NAME": "BFD Station 14 FS", "TYPE": "FSL", "UNIT": "BAK", "COUNTY": "Kern", "CITY": "Bakersfield", "LAT": 35.30307127, "LON": -119.11923176000001 }, "geometry": { "type": "Point", "coordinates": [ -13260293.6078, 4205144.648000001907349, 0.0 ] } },
{ "type": "Feature", "properties": { "FACILITY_S": "Active", "NAME": "Bakersfield PL", "TYPE": "SFM", "UNIT": "CDF", "COUNTY": "Kern", "CITY": "Bakersfield", "LAT": 35.34183469, "LON": -119.10698687 }, "geometry": { "type": "Point", "coordinates": [ -13258929.1279, 4210432.692199997603893, 0.0 ] } },